{"Phoenix":[{"id":"AZPHO","name":"Phoenix Hub","city":"Phoenix","state":"AZ","zip":"85017","size":0,"jobs":["Package Handler","Driver Helper (Oct-Dec)","Package Delivery Driver","Feeder Driver","Automotive Mechanic","Facilities Mechanic","Sales Representative","Warehouse Associate","UPS Freight Over the Road Driver","Part-time Operations Supervisor","Business Analyst"],"lat":33.484168,"lon":-112.126819},{"id":"AZENX","name":"Phoenix","city":"Phoenix","state":"AZ","zip":"85043","size":1,"jobs":["Package Handler","Driver Helper (Oct-Dec)","Package Delivery Driver","Feeder Driver","Automotive Mechanic","Facilities Mechanic","Sales Representative","Warehouse Associate","UPS Freight Over the Road Driver","Part-time Operations Supervisor","Business Analyst"],"lat":33.423606,"lon":-112.179413},{"id":"AZPHX","name":"Phoenix Air Gateway","city":"Phoenix","state":"AZ","zip":"85034","size":1,"jobs":["Package Handler","Driver Helper (Oct-Dec)","Package Delivery Driver","Feeder Driver","Automotive Mechanic","Facilities Mechanic","Sales Representative","Warehouse Associate","UPS Freight Over the Road Driver","Part-time Operations Supervisor","Business Analyst"],"lat":33.426594,"lon":-112.026895},{"id":"AZPNI","name":"Estrella","city":"Phoenix","state":"AZ","zip":"85043","size":1,"jobs":["Package Handler","Driver Helper (Oct-Dec)","Package Delivery Driver","Feeder Driver","Automotive Mechanic","Facilities Mechanic","Sales Representative","Warehouse Associate","UPS Freight Over the Road Driver","Part-time Operations Supervisor","Business Analyst"],"lat":33.45619,"lon":-112.215032},{"id":"AZS51","name":"Us Inside Sales - Phoenix","city":"Phoenix","state":"AZ","zip":"85044","size":1,"jobs":["Package Handler","Driver Helper (Oct-Dec)","Package Delivery Driver","Feeder Driver","Automotive Mechanic","Facilities Mechanic","Sales Representative","Warehouse Associate","UPS Freight Over the Road Driver","Part-time Operations Supervisor","Business Analyst"],"lat":33.357162,"lon":-111.972673}],"Tempe":[{"id":"AZTEM","name":"Tempe","city":"Tempe","state":"AZ","zip":"85281","size":0,"jobs":["Package Handler","Driver Helper (Oct-Dec)","Package Delivery Driver","Feeder Driver","Automotive Mechanic","Facilities Mechanic","Sales Representative","Warehouse Associate","UPS Freight Over the Road Driver","Part-time Operations Supervisor","Business Analyst"],"lat":33.412246,"lon":-111.902061}],"Mesa":[{"id":"AZMES","name":"Mesa","city":"Mesa","state":"AZ","zip":"85206","size":1,"jobs":["Package Handler","Driver Helper (Oct-Dec)","Package Delivery Driver","Feeder Driver","Automotive Mechanic","Facilities Mechanic","Sales Representative","Warehouse Associate","UPS Freight Over the Road Driver","Part-time Operations Supervisor","Business Analyst"],"lat":33.384377,"lon":-111.711629}],"Tucson":[{"id":"AZTUC","name":"Tucson","city":"Tucson","state":"AZ","zip":"85713","size":1,"jobs":["Package Handler","Driver Helper (Oct-Dec)","Package Delivery Driver","Feeder Driver","Automotive Mechanic","Facilities Mechanic","Sales Representative","Warehouse Associate","UPS Freight Over the Road Driver","Part-time Operations Supervisor","Business Analyst"],"lat":32.200731,"lon":-110.957559}]}