{"Anaheim":[{"id":"CAANA","name":"Anaheim","city":"Anaheim","state":"CA","zip":"92805","size":0,"jobs":["Package Handler","Driver Helper (Oct-Dec)","Package Delivery Driver","Feeder Driver","Automotive Mechanic","Facilities Mechanic","Part-time Operations Supervisor"],"lat":33.814032,"lon":-117.894876}],"Cerritos":[{"id":"CACER","name":"Cerritos Hub","city":"Cerritos","state":"CA","zip":"90703","size":0,"jobs":["Package Handler","Driver Helper (Oct-Dec)","Package Delivery Driver","Feeder Driver","Automotive Mechanic","Facilities Mechanic","Part-time Operations Supervisor"],"lat":33.883011,"lon":-118.05049}],"Chula Vista":[{"id":"CACHV","name":"Chula Vista","city":"Chula Vista","state":"CA","zip":"91914","size":0,"jobs":["Package Handler","Driver Helper (Oct-Dec)","Package Delivery Driver","Feeder Driver","Automotive Mechanic","Facilities Mechanic","Part-time Operations Supervisor"],"lat":32.655268,"lon":-116.970402}],"Fresno":[{"id":"CAFRE","name":"Fresno Center","city":"Fresno","state":"CA","zip":"93728","size":0,"jobs":["Package Handler","Driver Helper (Oct-Dec)","Package Delivery Driver","Feeder Driver","Automotive Mechanic","Facilities Mechanic","Part-time Operations Supervisor"],"lat":36.764133,"lon":-119.831381}],"Gardena":[{"id":"CAGAR","name":"Gardena Hub","city":"Gardena","state":"CA","zip":"90247","size":0,"jobs":["Package Handler","Driver Helper (Oct-Dec)","Package Delivery Driver","Feeder Driver","Automotive Mechanic","Facilities Mechanic","Part-time Operations Supervisor"],"lat":33.875229,"lon":-118.309613}],"Vernon":[{"id":"CAGVS","name":"Grande Vista","city":"Vernon","state":"CA","zip":"90058","size":0,"jobs":["Package Handler","Driver Helper (Oct-Dec)","Package Delivery Driver","Feeder Driver","Automotive Mechanic","Facilities Mechanic","Part-time Operations Supervisor"],"lat":34.009836,"lon":-118.206632}],"Aliso Viejo":[{"id":"CALAG","name":"Laguna Hub","city":"Aliso Viejo","state":"CA","zip":"92656","size":0,"jobs":["Package Handler","Driver Helper (Oct-Dec)","Package Delivery Driver","Feeder Driver","Automotive Mechanic","Facilities Mechanic","Part-time Operations Supervisor"],"lat":33.591324,"lon":-117.729660}],"Los Angeles":[{"id":"CAMNS","name":"Main Street Hub","city":"Los Angeles","state":"CA","zip":"90031","size":0,"jobs":["Package Handler","Driver Helper (Oct-Dec)","Package Delivery Driver","Feeder Driver","Automotive Mechanic","Facilities Mechanic","Part-time Operations Supervisor"],"lat":34.063872,"lon":-118.221332},{"id":"CAOLY","name":"Olympic","city":"Los Angeles","state":"CA","zip":"90015","size":0,"jobs":["Package Handler","Driver Helper (Oct-Dec)","Package Delivery Driver","Feeder Driver","Automotive Mechanic","Facilities Mechanic","Part-time Operations Supervisor"],"lat":34.047913,"lon":-118.268674},{"id":"CACMR","name":"Los Angeles","city":"Los Angeles","state":"CA","zip":"90040","size":1,"jobs":["Package Handler","UPS Freight Over the Road Driver","Part-time Operations Supervisor"],"lat":33.993183,"lon":-118.130654},{"id":"CAPRI","name":"Los Angeles","city":"Los Angeles","state":"CA","zip":"90660","size":1,"jobs":["Package Handler","UPS Freight Over the Road Driver","Part-time Operations Supervisor"],"lat":33.975867,"lon":-118.110452}],"Oakland":[{"id":"CAOAK","name":"Oakland","city":"Oakland","state":"CA","zip":"94621","size":0,"jobs":["Package Handler","Driver Helper (Oct-Dec)","Package Delivery Driver","Feeder Driver","Automotive Mechanic","Facilities Mechanic","Part-time Operations Supervisor"],"lat":37.733182,"lon":-122.204538},{"id":"CAOAR","name":"Oakland Air Hub","city":"Oakland","state":"CA","zip":"94621","size":1,"jobs":["Package Handler","Driver Helper (Oct-Dec)","Package Delivery Driver","Feeder Driver","Automotive Mechanic","Facilities Mechanic","Part-time Operations Supervisor"],"lat":37.715042,"lon":-122.214517},{"id":"CAOKN","name":"East Bay District Office","city":"Oakland","state":"CA","zip":"94621","size":1,"jobs":["General Management Staff","Administrative Support Staff"],"lat":37.730447,"lon":-122.203376}],"Ontario":[{"id":"CAOCS","name":"Ontario Carrier Support","city":"Ontario","state":"CA","zip":"91761","size":0,"jobs":["Package Handler","Feeder Driver","Part-time Operations Supervisor"],"lat":34.050197,"lon":-117.579611},{"id":"CAONA","name":"Ontario Air Hub","city":"Ontario","state":"CA","zip":"91761","size":0,"jobs":["Package Handler","Feeder Driver","Part-time Operations Supervisor"],"lat":34.048223,"lon":-117.585269}],"San Pablo":[{"id":"CARMD","name":"Richmond","city":"San Pablo","state":"CA","zip":"94806","size":0,"jobs":["Package Handler","Driver Helper (Oct-Dec)","Package Delivery Driver","Feeder Driver","Automotive Mechanic","Facilities Mechanic","Part-time Operations Supervisor"],"lat":37.995314,"lon":-122.346269}],"Sacramento":[{"id":"CASAC","name":"Sacramento Hub","city":"Sacramento","state":"CA","zip":"95691","size":0,"jobs":["Package Handler","Driver Helper (Oct-Dec)","Package Delivery Driver","Feeder Driver","Automotive Mechanic","Facilities Mechanic","Part-time Operations Supervisor"],"lat":38.571401,"lon":-121.547233},{"id":"CASMT","name":"Cordova","city":"Sacramento","state":"CA","zip":"95827","size":1,"jobs":["Package Handler","Driver Helper (Oct-Dec)","Package Delivery Driver","Feeder Driver","Automotive Mechanic","Facilities Mechanic","Part-time Operations Supervisor"],"lat":38.551947,"lon":-121.325239}],"San Francisco":[{"id":"CASAN","name":"San Francisco","city":"San Francisco","state":"CA","zip":"94103","size":0,"jobs":["Package Handler","Driver Helper (Oct-Dec)","Package Delivery Driver","Feeder Driver","Automotive Mechanic","Facilities Mechanic","Part-time Operations Supervisor"],"lat":37.765216,"lon":-122.406007}],"South San Francisco":[{"id":"CASBR","name":"San Bruno","city":"South San Francisco","state":"CA","zip":"94080","size":0,"jobs":["Package Handler","Driver Helper (Oct-Dec)","Package Delivery Driver","Feeder Driver","Automotive Mechanic","Facilities Mechanic","Part-time Operations Supervisor"],"lat":37.660012,"lon":-122.381526}],"San Diego":[{"id":"CASDI","name":"San Diego Hub","city":"San Diego","state":"CA","zip":"92111","size":0,"jobs":["Package Handler","Driver Helper (Oct-Dec)","Package Delivery Driver","Feeder Driver","Automotive Mechanic","Facilities Mechanic","Part-time Operations Supervisor"],"lat":32.828748,"lon":-117.151309},{"id":"CASAI","name":"Ups Mail Boxes Inc","city":"San Diego","state":"CA","zip":"92121","size":1,"jobs":["General Management Staff","Administrative Support Staff"],"lat":32.897333,"lon":-117.189441}],"Sylmar":[{"id":"CASFR","name":"San Fernando","city":"Sylmar","state":"CA","zip":"91342","size":0,"jobs":["Package Handler","Driver Helper (Oct-Dec)","Package Delivery Driver","Feeder Driver","Automotive Mechanic","Facilities Mechanic","Part-time Operations Supervisor"],"lat":34.297953,"lon":-118.409653}],"Baldwin Park":[{"id":"CASGA","name":"San Gabriel Hub","city":"Baldwin Park","state":"CA","zip":"91706","size":0,"jobs":["Package Handler","Driver Helper (Oct-Dec)","Package Delivery Driver","Feeder Driver","Automotive Mechanic","Facilities Mechanic","Part-time Operations Supervisor"],"lat":34.065563,"lon":-117.982955}],"Sunnyvale":[{"id":"CASUN","name":"Sunnyvale","city":"Sunnyvale","state":"CA","zip":"94089","size":0,"jobs":["Package Handler","Driver Helper (Oct-Dec)","Package Delivery Driver","Feeder Driver","Automotive Mechanic","Facilities Mechanic","Part-time Operations Supervisor"],"lat":37.404281,"lon":-121.99102}],"Van Nuys":[{"id":"CAVAN","name":"Van Nuys Hub","city":"Van Nuys","state":"CA","zip":"91406","size":0,"jobs":["Package Handler","Driver Helper (Oct-Dec)","Package Delivery Driver","Feeder Driver","Automotive Mechanic","Facilities Mechanic","Part-time Operations Supervisor"],"lat":34.213215,"lon":-118.481737}],"Bakersfield":[{"id":"CABAK","name":"Bakersfield Center","city":"Bakersfield","state":"CA","zip":"93308","size":1,"jobs":["Package Handler","Driver Helper (Oct-Dec)","Package Delivery Driver","Feeder Driver","Automotive Mechanic","Facilities Mechanic","Part-time Operations Supervisor"],"lat":35.394878,"lon":-119.034923}],"Rialto":[{"id":"CABLO","name":"Rialto","city":"Rialto","state":"CA","zip":"92316","size":1,"jobs":["Package Handler","UPS Freight Over the Road Driver","Part-time Operations Supervisor"],"lat":34.052811,"lon":-117.37579}],"Ceres":[{"id":"CACEE","name":"Ceres Center","city":"Ceres","state":"CA","zip":"95307","size":1,"jobs":["Package Handler","Driver Helper (Oct-Dec)","Package Delivery Driver","Feeder Driver","Automotive Mechanic","Facilities Mechanic","Part-time Operations Supervisor"],"lat":37.594932,"lon":-120.95771}],"Chico":[{"id":"CACHI","name":"Chico","city":"Chico","state":"CA","zip":"95928","size":1,"jobs":["Package Handler","Driver Helper (Oct-Dec)","Package Delivery Driver","Feeder Driver","Automotive Mechanic","Facilities Mechanic","Part-time Operations Supervisor"],"lat":39.708167,"lon":-121.818388}],"Concord":[{"id":"CACON","name":"Concord Center","city":"Concord","state":"CA","zip":"94520","size":1,"jobs":["Package Handler","Driver Helper (Oct-Dec)","Package Delivery Driver","Feeder Driver","Automotive Mechanic","Facilities Mechanic","Part-time Operations Supervisor"],"lat":37.99813,"lon":-122.050738}],"Suisun City":[{"id":"CACOR","name":"Cordelia Center","city":"Suisun City","state":"CA","zip":"94534","size":1,"jobs":["Package Handler","Driver Helper (Oct-Dec)","Package Delivery Driver","Feeder Driver","Automotive Mechanic","Facilities Mechanic","Part-time Operations Supervisor"],"lat":38.209551,"lon":-122.142832}],"Santa Cruz":[{"id":"CACRU","name":"Santa Cruz Center","city":"Santa Cruz","state":"CA","zip":"95060","size":1,"jobs":["Package Handler","Driver Helper (Oct-Dec)","Package Delivery Driver","Feeder Driver","Automotive Mechanic","Facilities Mechanic","Part-time Operations Supervisor"],"lat":36.985276,"lon":-122.036045}],"Fontana":[{"id":"CAFNA","name":"Fontana","city":"Fontana","state":"CA","zip":"92335","size":1,"jobs":["Package Handler","UPS Freight Over the Road Driver","Part-time Operations Supervisor"],"lat":34.074278,"lon":-117.4994}],"Inglewood":[{"id":"CAIWD","name":"Inglewood","city":"Inglewood","state":"CA","zip":"90303","size":1,"jobs":["Warehouse Associate","Driver Helper (Oct-Dec)","Package Delivery Driver","Feeder Driver"],"lat":33.944673,"lon":-118.335961}],"San Jose":[{"id":"CAJOS","name":"San Jose","city":"San Jose","state":"CA","zip":"95112","size":1,"jobs":["Package Handler","Driver Helper (Oct-Dec)","Package Delivery Driver","Feeder Driver","Automotive Mechanic","Facilities Mechanic","Part-time Operations Supervisor"],"lat":37.309223,"lon":-121.861752}],"Lancaster":[{"id":"CALAN","name":"Lancaster Center","city":"Lancaster","state":"CA","zip":"93534","size":1,"jobs":["Package Handler","Driver Helper (Oct-Dec)","Package Delivery Driver","Feeder Driver","Automotive Mechanic","Facilities Mechanic","Part-time Operations Supervisor"],"lat":34.659902,"lon":-118.134077}],"Mather":[{"id":"CAMAT","name":"Sacramento Gateway","city":"Mather","state":"CA","zip":"95655","size":1,"jobs":["Package Handler","Feeder Driver","Part-time Operations Supervisor"],"lat":38.557003,"lon":-121.311275}],"Menlo Park":[{"id":"CAMEN","name":"Menlo Park","city":"Menlo Park","state":"CA","zip":"94025","size":1,"jobs":["Package Handler","Driver Helper (Oct-Dec)","Package Delivery Driver","Feeder Driver","Automotive Mechanic","Facilities Mechanic","Part-time Operations Supervisor"],"lat":37.476869,"lon":-122.143481}],"Mira Loma":[{"id":"CAMLM","name":"Scs Mira Loma Ii - 4037","city":"Mira Loma","state":"CA","zip":"91752","size":1,"jobs":["Warehouse Associate","General Management Staff"],"lat":34.002599,"lon":-117.543856},{"id":"CAMRL","name":"Mira Loma Operations","city":"Mira Loma","state":"CA","zip":"91752","size":1,"jobs":["Warehouse Associate","General Management Staff"],"lat":33.999097,"lon":-117.546651}],"Napa":[{"id":"CANAP","name":"Napa Center","city":"Napa","state":"CA","zip":"94558","size":1,"jobs":["Package Handler","Driver Helper (Oct-Dec)","Package Delivery Driver","Feeder Driver","Automotive Mechanic","Facilities Mechanic","Part-time Operations Supervisor"],"lat":38.254815,"lon":-122.275764}],"Newbury Park":[{"id":"CANEW","name":"Newbury Park (Westlake) Center","city":"Newbury Park","state":"CA","zip":"91320","size":1,"jobs":["Package Handler","Driver Helper (Oct-Dec)","Package Delivery Driver","Feeder Driver","Automotive Mechanic","Facilities Mechanic","Part-time Operations Supervisor"],"lat":34.199111,"lon":-118.924243}],"Palm Springs":[{"id":"CAPAL","name":"Palm Springs","city":"Palm Springs","state":"CA","zip":"92262","size":1,"jobs":["Package Handler","Driver Helper (Oct-Dec)","Package Delivery Driver","Feeder Driver","Automotive Mechanic","Facilities Mechanic","Part-time Operations Supervisor"],"lat":33.832864,"lon":-116.51543}],"Romoland":[{"id":"CAPER","name":"Temecula","city":"Romoland","state":"CA","zip":"92585","size":1,"jobs":["Package Handler","Driver Helper (Oct-Dec)","Package Delivery Driver","Feeder Driver","Automotive Mechanic","Facilities Mechanic","Part-time Operations Supervisor"],"lat":33.753461,"lon":-117.18231}],"Petaluma":[{"id":"CAPET","name":"Petaluma","city":"Petaluma","state":"CA","zip":"94952","size":1,"jobs":["Package Handler","Driver Helper (Oct-Dec)","Package Delivery Driver","Feeder Driver","Automotive Mechanic","Facilities Mechanic","Part-time Operations Supervisor"],"lat":38.226781,"lon":-122.588385}],"Anderson":[{"id":"CARED","name":"Redding Center","city":"Anderson","state":"CA","zip":"96007","size":1,"jobs":["Package Handler","Driver Helper (Oct-Dec)","Package Delivery Driver","Feeder Driver","Automotive Mechanic","Facilities Mechanic","Part-time Operations Supervisor"],"lat":40.484446,"lon":-122.349154}],"Riverside":[{"id":"CARIV","name":"Riverside","city":"Riverside","state":"CA","zip":"92507","size":1,"jobs":["Package Handler","Driver Helper (Oct-Dec)","Package Delivery Driver","Feeder Driver","Automotive Mechanic","Facilities Mechanic","Part-time Operations Supervisor"],"lat":33.99134,"lon":-117.341725}],"Rocklin":[{"id":"CAROC","name":"Rocklin Center","city":"Rocklin","state":"CA","zip":"95677","size":1,"jobs":["Package Handler","Driver Helper (Oct-Dec)","Package Delivery Driver","Feeder Driver","Automotive Mechanic","Facilities Mechanic","Part-time Operations Supervisor"],"lat":38.798197,"lon":-121.222039}],"Salinas":[{"id":"CASAL","name":"Salinas Center","city":"Salinas","state":"CA","zip":"93901","size":1,"jobs":["Package Handler","Driver Helper (Oct-Dec)","Package Delivery Driver","Feeder Driver","Automotive Mechanic","Facilities Mechanic","Part-time Operations Supervisor"],"lat":36.693686,"lon":-121.677332}],"Santa Maria":[{"id":"CASAM","name":"Santa Maria Center","city":"Santa Maria","state":"CA","zip":"93454","size":1,"jobs":["Package Handler","Driver Helper (Oct-Dec)","Package Delivery Driver","Feeder Driver","Automotive Mechanic","Facilities Mechanic","Part-time Operations Supervisor"],"lat":34.919319,"lon":-120.439132}],"Santa Rosa":[{"id":"CASAR","name":"Santa Rosa Center","city":"Santa Rosa","state":"CA","zip":"95403","size":1,"jobs":["Package Handler","Driver Helper (Oct-Dec)","Package Delivery Driver","Feeder Driver","Automotive Mechanic","Facilities Mechanic","Part-time Operations Supervisor"],"lat":38.476038,"lon":-122.740606}],"San Bernardino":[{"id":"CASBE","name":"San Bernardino","city":"San Bernardino","state":"CA","zip":"92408","size":1,"jobs":["Package Handler","Driver Helper (Oct-Dec)","Package Delivery Driver","Feeder Driver","Automotive Mechanic","Facilities Mechanic","Part-time Operations Supervisor"],"lat":34.073887,"lon":-117.255067}],"San Luis Obispo":[{"id":"CASLO","name":"San Luis Obispo","city":"San Luis Obispo","state":"CA","zip":"93401","size":1,"jobs":["Package Handler","Driver Helper (Oct-Dec)","Package Delivery Driver","Feeder Driver","Automotive Mechanic","Facilities Mechanic","Part-time Operations Supervisor"],"lat":35.254757,"lon":-120.642081}],"San Leandro":[{"id":"CASLR","name":"San Leandro","city":"San Leandro","state":"CA","zip":"94577","size":1,"jobs":["Package Handler","UPS Freight Over the Road Driver","Part-time Operations Supervisor"],"lat":37.706135,"lon":-122.155066}],"San Marcos":[{"id":"CASMR","name":"San Marcos","city":"San Marcos","state":"CA","zip":"92069","size":1,"jobs":["Package Handler","Driver Helper (Oct-Dec)","Package Delivery Driver","Feeder Driver","Automotive Mechanic","Facilities Mechanic","Part-time Operations Supervisor"],"lat":33.143987,"lon":-117.183087}],"San Ramon":[{"id":"CASNR","name":"San Ramon","city":"San Ramon","state":"CA","zip":"94583","size":1,"jobs":["Package Handler","Driver Helper (Oct-Dec)","Package Delivery Driver","Feeder Driver","Automotive Mechanic","Facilities Mechanic","Part-time Operations Supervisor"],"lat":37.773923,"lon":-121.969549}],"San Rafael":[{"id":"CASRA","name":"San Rafael Center","city":"San Rafael","state":"CA","zip":"94901","size":1,"jobs":["Package Handler","Driver Helper (Oct-Dec)","Package Delivery Driver","Feeder Driver","Automotive Mechanic","Facilities Mechanic","Part-time Operations Supervisor"],"lat":37.954974,"lon":-122.498156}],"Goleta":[{"id":"CASTB","name":"Santa Barbara","city":"Goleta","state":"CA","zip":"93117","size":1,"jobs":["Package Handler","Driver Helper (Oct-Dec)","Package Delivery Driver","Feeder Driver","Automotive Mechanic","Facilities Mechanic","Part-time Operations Supervisor"],"lat":34.431798,"lon":-119.827566}],"Stockton":[{"id":"CASTO","name":"Stockton Center","city":"Stockton","state":"CA","zip":"95205","size":1,"jobs":["Package Handler","Driver Helper (Oct-Dec)","Package Delivery Driver","Feeder Driver","Automotive Mechanic","Facilities Mechanic","Part-time Operations Supervisor"],"lat":37.978173,"lon":-121.250393}],"Torrance":[{"id":"CATRC","name":"Torrance","city":"Torrance","state":"CA","zip":"90502","size":1,"jobs":["Warehouse Associate","General Management Staff"],"lat":33.851752,"lon":-118.287233}],"Ventura":[{"id":"CAVEN","name":"Ventura Center","city":"Ventura","state":"CA","zip":"93003","size":1,"jobs":["Package Handler","Driver Helper (Oct-Dec)","Package Delivery Driver","Feeder Driver","Automotive Mechanic","Facilities Mechanic","Part-time Operations Supervisor"],"lat":34.250167,"lon":-119.227865}],"Visalia":[{"id":"CAVIS","name":"Visalia Center","city":"Visalia","state":"CA","zip":"93291","size":1,"jobs":["Package Handler","Driver Helper (Oct-Dec)","Package Delivery Driver","Feeder Driver","Automotive Mechanic","Facilities Mechanic","Part-time Operations Supervisor"],"lat":36.340803,"lon":-119.408419}],"Victorville":[{"id":"CAVTV","name":"Victorville Center","city":"Victorville","state":"CA","zip":"92392","size":1,"jobs":["Package Handler","Driver Helper (Oct-Dec)","Package Delivery Driver","Feeder Driver","Automotive Mechanic","Facilities Mechanic","Part-time Operations Supervisor"],"lat":34.476156,"lon":-117.28483}]}