{"Commerce City":[{"id":"CODEN","name":"Commerce City","city":"Commerce City","state":"CO","zip":"80022","size":0,"jobs":["Package Handler","Driver Helper (Oct-Dec)","Package Delivery Driver","Feeder Driver","Automotive Mechanic","Facilities Mechanic","Sales Representative","Warehouse Associate","UPS Freight Over the Road Driver","Part-time Operations Supervisor","Business Analyst"],"lat":39.789206,"lon":-104.915361}],"Denver":[{"id":"COCMR","name":"Denver","city":"Denver","state":"CO","zip":"80022","size":1,"jobs":["Package Handler","Driver Helper (Oct-Dec)","Package Delivery Driver","Feeder Driver","Automotive Mechanic","Facilities Mechanic","Sales Representative","Warehouse Associate","UPS Freight Over the Road Driver","Part-time Operations Supervisor","Business Analyst"],"lat":39.798229,"lon":-104.925424},{"id":"CODIA","name":"Denver International Airport","city":"Denver","state":"CO","zip":"80022","size":1,"jobs":["Package Handler","Driver Helper (Oct-Dec)","Package Delivery Driver","Feeder Driver","Automotive Mechanic","Facilities Mechanic","Sales Representative","Warehouse Associate","UPS Freight Over the Road Driver","Part-time Operations Supervisor","Business Analyst"],"lat":39.830731,"lon":-104.687427}],"Colorado Springs":[{"id":"COCOL","name":"Colorado Springs","city":"Colorado Springs","state":"CO","zip":"80915","size":1,"jobs":["Package Handler","Driver Helper (Oct-Dec)","Package Delivery Driver","Feeder Driver","Automotive Mechanic","Facilities Mechanic","Sales Representative","Warehouse Associate","UPS Freight Over the Road Driver","Part-time Operations Supervisor","Business Analyst"],"lat":38.845276,"lon":-104.744615}],"Englewood":[{"id":"COEGL","name":"Englewood Center","city":"Englewood","state":"CO","zip":"80112","size":1,"jobs":["Package Handler","Driver Helper (Oct-Dec)","Package Delivery Driver","Feeder Driver","Automotive Mechanic","Facilities Mechanic","Sales Representative","Warehouse Associate","UPS Freight Over the Road Driver","Part-time Operations Supervisor","Business Analyst"],"lat":39.563447,"lon":-104.837577}],"Loveland":[{"id":"COLOV","name":"Loveland Co","city":"Loveland","state":"CO","zip":"80538","size":1,"jobs":["Package Handler","Driver Helper (Oct-Dec)","Package Delivery Driver","Feeder Driver","Automotive Mechanic","Facilities Mechanic","Sales Representative","Warehouse Associate","UPS Freight Over the Road Driver","Part-time Operations Supervisor","Business Analyst"],"lat":40.462206,"lon":-105.081571}]}