{"Hartford":[{"id":"CTHAR","name":"Hartford","city":"Hartford","state":"CT","zip":"06114","size":0,"jobs":["Package Handler","Driver Helper (Oct-Dec)","Package Delivery Driver","Feeder Driver","Automotive Mechanic","Facilities Mechanic","Part-time Operations Supervisor"],"lat":41.748119,"lon":-72.662776}],"Stratford":[{"id":"CTSTR","name":"Stratford","city":"Stratford","state":"CT","zip":"06615","size":0,"jobs":["Package Handler","Driver Helper (Oct-Dec)","Package Delivery Driver","Feeder Driver","Automotive Mechanic","Facilities Mechanic","Part-time Operations Supervisor"],"lat":41.172914,"lon":-73.151392}],"Windsor Locks":[{"id":"CTBIA","name":"Bradley Air Facility","city":"Windsor Locks","state":"CT","zip":"06096","size":1,"jobs":["Package Handler","Feeder Driver","Part-time Operations Supervisor"],"lat":41.924292,"lon":-72.645447},{"id":"CTBRA","name":"Bradley Airport","city":"Windsor Locks","state":"CT","zip":"06096","size":1,"jobs":["Package Handler","Feeder Driver","Part-time Operations Supervisor"],"lat":41.924292,"lon":-72.645447}],"Brookfield":[{"id":"CTDAN","name":"Danbury","city":"Brookfield","state":"CT","zip":"06804","size":1,"jobs":["Package Handler","Driver Helper (Oct-Dec)","Package Delivery Driver","Feeder Driver","Automotive Mechanic","Facilities Mechanic","Part-time Operations Supervisor"],"lat":41.461989,"lon":-73.397295}],"Bozrah":[{"id":"CTNCH","name":"Norwich","city":"Bozrah","state":"CT","zip":"06334","size":1,"jobs":["Package Handler","Driver Helper (Oct-Dec)","Package Delivery Driver","Feeder Driver","Automotive Mechanic","Facilities Mechanic","Part-time Operations Supervisor"],"lat":41.565461,"lon":-72.151342}],"Norwalk":[{"id":"CTNLK","name":"Norwalk","city":"Norwalk","state":"CT","zip":"06854","size":1,"jobs":["Package Handler","Driver Helper (Oct-Dec)","Package Delivery Driver","Feeder Driver","Automotive Mechanic","Facilities Mechanic","Part-time Operations Supervisor"],"lat":41.089483,"lon":-73.426587}],"North Haven":[{"id":"CTNOR","name":"North Haven","city":"North Haven","state":"CT","zip":"06473","size":1,"jobs":["Package Handler","Driver Helper (Oct-Dec)","Package Delivery Driver","Feeder Driver","Automotive Mechanic","Facilities Mechanic","Part-time Operations Supervisor"],"lat":41.369003,"lon":-72.883708}],"Orange":[{"id":"CTORA","name":"Orange","city":"Orange","state":"CT","zip":"06477","size":1,"jobs":["Package Handler","Driver Helper (Oct-Dec)","Package Delivery Driver","Feeder Driver","Automotive Mechanic","Facilities Mechanic","Part-time Operations Supervisor"],"lat":41.247071,"lon":-72.991754}],"Watertown":[{"id":"CTWAT","name":"Waterbury","city":"Watertown","state":"CT","zip":"06795","size":1,"jobs":["Package Handler","Driver Helper (Oct-Dec)","Package Delivery Driver","Feeder Driver","Automotive Mechanic","Facilities Mechanic","Part-time Operations Supervisor"],"lat":41.60668,"lon":-73.081017}]}