{"Deerfield Beach":[{"id":"FLDEE","name":"Deerfield","city":"Deerfield Beach","state":"FL","zip":"33442","size":0,"jobs":["Package Handler","Driver Helper (Oct-Dec)","Package Delivery Driver","Feeder Driver","Automotive Mechanic","Facilities Mechanic","Part-time Operations Supervisor"],"lat":26.321003,"lon":-80.122424}],"Lauderhill":[{"id":"FLFTL","name":"Fort Lauderdale","city":"Lauderhill","state":"FL","zip":"33313","size":0,"jobs":["Package Handler","Driver Helper (Oct-Dec)","Package Delivery Driver","Feeder Driver","Automotive Mechanic","Facilities Mechanic","Part-time Operations Supervisor"],"lat":26.145415,"lon":-80.200732}],"Hialeah":[{"id":"FLHIA","name":"Hialeah","city":"Hialeah","state":"FL","zip":"33013","size":0,"jobs":["Package Handler","Driver Helper (Oct-Dec)","Package Delivery Driver","Feeder Driver","Automotive Mechanic","Facilities Mechanic","Part-time Operations Supervisor"],"lat":25.876797,"lon":-80.26516}],"Jacksonville":[{"id":"FLJAC","name":"Jacksonville","city":"Jacksonville","state":"FL","zip":"32219","size":0,"jobs":["Package Handler","Driver Helper (Oct-Dec)","Package Delivery Driver","Feeder Driver","Automotive Mechanic","Facilities Mechanic","Part-time Operations Supervisor"],"lat":30.37744,"lon":-81.778126}],"Longwood":[{"id":"FLLON","name":"Longwood Center","city":"Longwood","state":"FL","zip":"32750","size":0,"jobs":["Package Handler","Driver Helper (Oct-Dec)","Package Delivery Driver","Feeder Driver","Automotive Mechanic","Facilities Mechanic","Part-time Operations Supervisor"],"lat":28.690083,"lon":-81.351484}],"Miami":[{"id":"FLMIA","name":"Miami Hub","city":"Miami","state":"FL","zip":"33122","size":0,"jobs":["Package Handler","Driver Helper (Oct-Dec)","Package Delivery Driver","Feeder Driver","Automotive Mechanic","Facilities Mechanic","Part-time Operations Supervisor"],"lat":25.796201,"lon":-80.31621},{"id":"FLMMI","name":"UPS Air Cargo, Inc.","city":"Miami","state":"FL","zip":"33122","size":0,"jobs":["Package Handler","Feeder Driver","Part-time Operations Supervisor"],"lat":25.805657,"lon":-80.304066},{"id":"FLAMI","name":"Americas International Hub","city":"Miami","state":"FL","zip":"33122","size":1,"jobs":["General Management Staff","Administrative Support Staff"],"lat":25.808366,"lon":-80.301215},{"id":"FLIMI","name":"Miami Gateway","city":"Miami","state":"FL","zip":"33122","size":1,"jobs":["Warehouse Associate","General Management Staff"],"lat":25.776115,"lon":-80.31567},{"id":"FLMIS","name":"Miami South","city":"Miami","state":"FL","zip":"33032","size":1,"jobs":["Package Handler","Driver Helper (Oct-Dec)","Package Delivery Driver","Feeder Driver","Automotive Mechanic","Facilities Mechanic","Part-time Operations Supervisor"],"lat":25.528028,"lon":-80.421845}],"Orlando":[{"id":"FLORL","name":"Orlando Hub","city":"Orlando","state":"FL","zip":"32824","size":0,"jobs":["Package Handler","Driver Helper (Oct-Dec)","Package Delivery Driver","Feeder Driver","Automotive Mechanic","Facilities Mechanic","Part-time Operations Supervisor"],"lat":28.438224,"lon":-81.355193},{"id":"FLOCO","name":"Orlando","city":"Orlando","state":"FL","zip":"34761","size":1,"jobs":["Package Handler","UPS Freight Over the Road Driver","Part-time Operations Supervisor"],"lat":28.561825,"lon":-81.552078},{"id":"FLORA","name":"Orange Avenue","city":"Orlando","state":"FL","zip":"32809","size":1,"jobs":["Package Handler","Driver Helper (Oct-Dec)","Package Delivery Driver","Feeder Driver","Automotive Mechanic","Facilities Mechanic","Part-time Operations Supervisor"],"lat":28.447644,"lon":-81.363751}],"Clearwater":[{"id":"FLPIN","name":"Pinellas Park","city":"Clearwater","state":"FL","zip":"33760","size":0,"jobs":["Package Handler","Driver Helper (Oct-Dec)","Package Delivery Driver","Feeder Driver","Automotive Mechanic","Facilities Mechanic","Part-time Operations Supervisor"],"lat":27.885576,"lon":-82.709998}],"Riviera Beach":[{"id":"FLRIV","name":"Riviera Beach","city":"Riviera Beach","state":"FL","zip":"33404","size":0,"jobs":["Package Handler","Driver Helper (Oct-Dec)","Package Delivery Driver","Feeder Driver","Automotive Mechanic","Facilities Mechanic","Part-time Operations Supervisor"],"lat":26.77961,"lon":-80.076243}],"Tampa":[{"id":"FLTAB","name":"Tampa","city":"Tampa","state":"FL","zip":"33619","size":0,"jobs":["Package Handler","Driver Helper (Oct-Dec)","Package Delivery Driver","Feeder Driver","Automotive Mechanic","Facilities Mechanic","Part-time Operations Supervisor"],"lat":27.954846,"lon":-82.399658},{"id":"FLBAY","name":"Bayside Center","city":"Tampa","state":"FL","zip":"33634","size":1,"jobs":["Package Handler","Driver Helper (Oct-Dec)","Package Delivery Driver","Feeder Driver","Automotive Mechanic","Facilities Mechanic","Part-time Operations Supervisor"],"lat":28.035523,"lon":-82.530508},{"id":"FLELA","name":"Tampa","city":"Tampa","state":"FL","zip":"33610","size":1,"jobs":["Package Handler","UPS Freight Over the Road Driver","Part-time Operations Supervisor"],"lat":27.977145,"lon":-82.416723}],"Brooksville":[{"id":"FLBRO","name":"Brooksville","city":"Brooksville","state":"FL","zip":"34601","size":1,"jobs":["Package Handler","Driver Helper (Oct-Dec)","Package Delivery Driver","Feeder Driver","Automotive Mechanic","Facilities Mechanic","Part-time Operations Supervisor"],"lat":28.534406,"lon":-82.405146}],"Rockledge":[{"id":"FLCOC","name":"Cocoa Center","city":"Rockledge","state":"FL","zip":"32955","size":1,"jobs":["Package Handler","Driver Helper (Oct-Dec)","Package Delivery Driver","Feeder Driver","Automotive Mechanic","Facilities Mechanic","Part-time Operations Supervisor"],"lat":28.329388,"lon":-80.73361}],"Daytona Beach":[{"id":"FLDAY","name":"Daytona Center","city":"Daytona Beach","state":"FL","zip":"32114","size":1,"jobs":["Package Handler","Driver Helper (Oct-Dec)","Package Delivery Driver","Feeder Driver","Automotive Mechanic","Facilities Mechanic","Part-time Operations Supervisor"],"lat":29.198181,"lon":-81.079927}],"Fort Myers":[{"id":"FLFTM","name":"Fort Myers","city":"Fort Myers","state":"FL","zip":"33916","size":1,"jobs":["Package Handler","Driver Helper (Oct-Dec)","Package Delivery Driver","Feeder Driver","Automotive Mechanic","Facilities Mechanic","Part-time Operations Supervisor"],"lat":26.619345,"lon":-81.84555}],"Fort Pierce":[{"id":"FLFTP","name":"Fort Pierce","city":"Fort Pierce","state":"FL","zip":"34982","size":1,"jobs":["Package Handler","Driver Helper (Oct-Dec)","Package Delivery Driver","Feeder Driver","Automotive Mechanic","Facilities Mechanic","Part-time Operations Supervisor"],"lat":27.405825,"lon":-80.334478}],"Fort Walton":[{"id":"FLFTW","name":"Fort Walton","city":"Fort Walton","state":"FL","zip":"32548","size":1,"jobs":["Package Handler","Driver Helper (Oct-Dec)","Package Delivery Driver","Feeder Driver","Automotive Mechanic","Facilities Mechanic","Part-time Operations Supervisor"],"lat":30.410075,"lon":-86.626944}],"Gainesville":[{"id":"FLGAI","name":"Gainesville Center","city":"Gainesville","state":"FL","zip":"32653","size":1,"jobs":["Package Handler","Driver Helper (Oct-Dec)","Package Delivery Driver","Feeder Driver","Automotive Mechanic","Facilities Mechanic","Part-time Operations Supervisor"],"lat":29.715475,"lon":-82.349107}],"Hollywood":[{"id":"FLHOL","name":"Hollywood","city":"Hollywood","state":"FL","zip":"33020","size":1,"jobs":["Package Handler","Driver Helper (Oct-Dec)","Package Delivery Driver","Feeder Driver","Automotive Mechanic","Facilities Mechanic","Part-time Operations Supervisor"],"lat":26.038296,"lon":-80.16517}],"Leesburg":[{"id":"FLLEE","name":"Leesburg Center","city":"Leesburg","state":"FL","zip":"34748","size":1,"jobs":["Package Handler","Driver Helper (Oct-Dec)","Package Delivery Driver","Feeder Driver","Automotive Mechanic","Facilities Mechanic","Part-time Operations Supervisor"],"lat":28.829675,"lon":-81.907794}],"Lake Wales":[{"id":"FLLKW","name":"Lake Wales Center","city":"Lake Wales","state":"FL","zip":"33853","size":1,"jobs":["Package Handler","Driver Helper (Oct-Dec)","Package Delivery Driver","Feeder Driver","Automotive Mechanic","Facilities Mechanic","Part-time Operations Supervisor"],"lat":27.896658,"lon":-81.603639}],"Lakeland":[{"id":"FLLWA","name":"Lakeland Center","city":"Lakeland","state":"FL","zip":"33801","size":1,"jobs":["Package Handler","Driver Helper (Oct-Dec)","Package Delivery Driver","Feeder Driver","Automotive Mechanic","Facilities Mechanic","Part-time Operations Supervisor"],"lat":28.041481,"lon":-81.904317}],"Melbourne":[{"id":"FLMEL","name":"Melbourne","city":"Melbourne","state":"FL","zip":"32905","size":1,"jobs":["Package Handler","Driver Helper (Oct-Dec)","Package Delivery Driver","Feeder Driver","Automotive Mechanic","Facilities Mechanic","Part-time Operations Supervisor"],"lat":28.042797,"lon":-80.59045}],"Naples":[{"id":"FLNAP","name":"Naples","city":"Naples","state":"FL","zip":"34104","size":1,"jobs":["Package Handler","Driver Helper (Oct-Dec)","Package Delivery Driver","Feeder Driver","Automotive Mechanic","Facilities Mechanic","Part-time Operations Supervisor"],"lat":26.13892,"lon":-81.74418}],"Ocala":[{"id":"FLOCA","name":"Ocala Center","city":"Ocala","state":"FL","zip":"34474","size":1,"jobs":["Package Handler","Driver Helper (Oct-Dec)","Package Delivery Driver","Feeder Driver","Automotive Mechanic","Facilities Mechanic","Part-time Operations Supervisor"],"lat":29.183344,"lon":-82.171328}],"Panama City":[{"id":"FLPAN","name":"Panama City","city":"Panama City","state":"FL","zip":"32405","size":1,"jobs":["Package Handler","Driver Helper (Oct-Dec)","Package Delivery Driver","Feeder Driver","Automotive Mechanic","Facilities Mechanic","Part-time Operations Supervisor"],"lat":30.208173,"lon":-85.646263}],"Pensacola":[{"id":"FLPEN","name":"Pensacola Center","city":"Pensacola","state":"FL","zip":"32526","size":1,"jobs":["Package Handler","Driver Helper (Oct-Dec)","Package Delivery Driver","Feeder Driver","Automotive Mechanic","Facilities Mechanic","Part-time Operations Supervisor"],"lat":30.485719,"lon":-87.29087}],"Port Charlotte":[{"id":"FLPOC","name":"Port Charlotte","city":"Port Charlotte","state":"FL","zip":"33980","size":1,"jobs":["Package Handler","Driver Helper (Oct-Dec)","Package Delivery Driver","Feeder Driver","Automotive Mechanic","Facilities Mechanic","Part-time Operations Supervisor"],"lat":26.962916,"lon":-82.06818}],"Sarasota":[{"id":"FLSAR","name":"Sarasota Center","city":"Sarasota","state":"FL","zip":"34234","size":1,"jobs":["Package Handler","Driver Helper (Oct-Dec)","Package Delivery Driver","Feeder Driver","Automotive Mechanic","Facilities Mechanic","Part-time Operations Supervisor"],"lat":27.351148,"lon":-82.531992}],"Stuart":[{"id":"FLSTU","name":"Stuart","city":"Stuart","state":"FL","zip":"34997","size":1,"jobs":["Package Handler","Driver Helper (Oct-Dec)","Package Delivery Driver","Feeder Driver","Automotive Mechanic","Facilities Mechanic","Part-time Operations Supervisor"],"lat":27.159583,"lon":-80.216271}],"Tallahassee":[{"id":"FLTAL","name":"Tallahassee Center","city":"Tallahassee","state":"FL","zip":"32303","size":1,"jobs":["Package Handler","Driver Helper (Oct-Dec)","Package Delivery Driver","Feeder Driver","Automotive Mechanic","Facilities Mechanic","Part-time Operations Supervisor"],"lat":30.468693,"lon":-84.356558}]}