{"Davenport":[{"id":"IADAV","name":"Davenport","city":"Davenport","state":"IA","zip":"52806","size":0,"jobs":["Package Handler","Driver Helper (Oct-Dec)","Package Delivery Driver","Feeder Driver","Automotive Mechanic","Facilities Mechanic","Sales Representative","Warehouse Associate","UPS Freight Over the Road Driver","Part-time Operations Supervisor","Business Analyst"],"lat":41.597892,"lon":-90.589623}],"Des Moines":[{"id":"IADES","name":"Des Moines","city":"Des Moines","state":"IA","zip":"50316","size":0,"jobs":["Package Handler","Driver Helper (Oct-Dec)","Package Delivery Driver","Feeder Driver","Automotive Mechanic","Facilities Mechanic","Sales Representative","Warehouse Associate","UPS Freight Over the Road Driver","Part-time Operations Supervisor","Business Analyst"],"lat":41.619456,"lon":-93.587031},{"id":"IADAP","name":"Des Moines Airport","city":"Des Moines","state":"IA","zip":"50321","size":1,"jobs":["Package Handler","Driver Helper (Oct-Dec)","Package Delivery Driver","Feeder Driver","Automotive Mechanic","Facilities Mechanic","Sales Representative","Warehouse Associate","UPS Freight Over the Road Driver","Part-time Operations Supervisor","Business Analyst"],"lat":41.526781,"lon":-93.653066}],"Hiawatha":[{"id":"IAHIA","name":"Hiawatha","city":"Hiawatha","state":"IA","zip":"52233","size":1,"jobs":["Package Handler","Driver Helper (Oct-Dec)","Package Delivery Driver","Feeder Driver","Automotive Mechanic","Facilities Mechanic","Sales Representative","Warehouse Associate","UPS Freight Over the Road Driver","Part-time Operations Supervisor","Business Analyst"],"lat":42.056325,"lon":-91.676995}],"Sioux City":[{"id":"IASIO","name":"Sioux City","city":"Sioux City","state":"IA","zip":"51104","size":1,"jobs":["Package Handler","Driver Helper (Oct-Dec)","Package Delivery Driver","Feeder Driver","Automotive Mechanic","Facilities Mechanic","Sales Representative","Warehouse Associate","UPS Freight Over the Road Driver","Part-time Operations Supervisor","Business Analyst"],"lat":42.505865,"lon":-96.380451}],"Cedar Falls":[{"id":"IAWAT","name":"Waterloo","city":"Cedar Falls","state":"IA","zip":"50613","size":1,"jobs":["Package Handler","Driver Helper (Oct-Dec)","Package Delivery Driver","Feeder Driver","Automotive Mechanic","Facilities Mechanic","Sales Representative","Warehouse Associate","UPS Freight Over the Road Driver","Part-time Operations Supervisor","Business Analyst"],"lat":42.482938,"lon":-92.446938}]}