{"Addison":[{"id":"ILADD","name":"Addison A Building","city":"Addison","state":"IL","zip":"60101","size":0,"jobs":["Package Handler","Driver Helper (Oct-Dec)","Package Delivery Driver","Feeder Driver","Automotive Mechanic","Facilities Mechanic","Part-time Operations Supervisor"],"lat":41.924757,"lon":-88.028394},{"id":"ILBDL","name":"Bloomingdale","city":"Addison","state":"IL","zip":"60101","size":1,"jobs":["Package Handler","Driver Helper (Oct-Dec)","Package Delivery Driver","Feeder Driver","Automotive Mechanic","Facilities Mechanic","Part-time Operations Supervisor"],"lat":41.931861,"lon":-88.040326}],"Bedford Park":[{"id":"ILBED","name":"Bedford Park","city":"Bedford Park","state":"IL","zip":"60638","size":0,"jobs":["Package Handler","Driver Helper (Oct-Dec)","Package Delivery Driver","Feeder Driver","Automotive Mechanic","Facilities Mechanic","Part-time Operations Supervisor"],"lat":41.761478,"lon":-87.790355}],"Franklin Park":[{"id":"ILFRA","name":"Franklin Park Hub","city":"Franklin Park","state":"IL","zip":"60131","size":0,"jobs":["Package Handler","Driver Helper (Oct-Dec)","Package Delivery Driver","Feeder Driver","Automotive Mechanic","Facilities Mechanic","Part-time Operations Supervisor"],"lat":41.913689,"lon":-87.86271}],"Hodgkins":[{"id":"ILHOD","name":"Chicago Area Consolidation Hub","city":"Hodgkins","state":"IL","zip":"60525","size":0,"jobs":["Package Handler","Feeder Driver","Part-time Operations Supervisor"],"lat":41.749106,"lon":-87.879495}],"Chicago":[{"id":"ILJEF","name":"Jefferson Hub","city":"Chicago","state":"IL","zip":"60607","size":0,"jobs":["Package Handler","Driver Helper (Oct-Dec)","Package Delivery Driver","Feeder Driver","Automotive Mechanic","Facilities Mechanic","Part-time Operations Supervisor"],"lat":41.863976,"lon":-87.642501},{"id":"ILCWS","name":"Chicago","city":"Chicago","state":"IL","zip":"60638","size":1,"jobs":["Package Handler","UPS Freight Over the Road Driver","Part-time Operations Supervisor"],"lat":41.753795,"lon":-87.786239},{"id":"ILOHA","name":"O'hare","city":"Chicago","state":"IL","zip":"60666","size":1,"jobs":["Package Handler","Feeder Driver","Part-time Operations Supervisor"],"lat":41.974163,"lon":-87.907321}],"Northbrook":[{"id":"ILNOR","name":"Northbrook","city":"Northbrook","state":"IL","zip":"60062","size":0,"jobs":["Package Handler","Driver Helper (Oct-Dec)","Package Delivery Driver","Feeder Driver","Automotive Mechanic","Facilities Mechanic","Part-time Operations Supervisor"],"lat":42.10789,"lon":-87.827438}],"Palatine":[{"id":"ILPAL","name":"Palatine","city":"Palatine","state":"IL","zip":"60067","size":0,"jobs":["Package Handler","Driver Helper (Oct-Dec)","Package Delivery Driver","Feeder Driver","Automotive Mechanic","Facilities Mechanic","Part-time Operations Supervisor"],"lat":42.14842,"lon":-88.036396},{"id":"ILPLA","name":"Palatine","city":"Palatine","state":"IL","zip":"60067","size":1,"jobs":["Package Handler","UPS Freight Over the Road Driver","Part-time Operations Supervisor"],"lat":42.096229,"lon":-88.035035}],"Rockford":[{"id":"ILRKF","name":"Rockford Air Hub","city":"Rockford","state":"IL","zip":"61109","size":0,"jobs":["Package Handler","Feeder Driver","Part-time Operations Supervisor"],"lat":42.20099,"lon":-89.104158}],"East Alton":[{"id":"ILALT","name":"Alton","city":"East Alton","state":"IL","zip":"62024","size":1,"jobs":["Package Handler","Driver Helper (Oct-Dec)","Package Delivery Driver","Feeder Driver","Automotive Mechanic","Facilities Mechanic","Part-time Operations Supervisor"],"lat":38.8825,"lon":-90.055799}],"Belleville":[{"id":"ILBEL","name":"Belleville","city":"Belleville","state":"IL","zip":"62223","size":1,"jobs":["Package Handler","Driver Helper (Oct-Dec)","Package Delivery Driver","Feeder Driver","Automotive Mechanic","Facilities Mechanic","Part-time Operations Supervisor"],"lat":38.545697,"lon":-90.070389}],"Bensenville":[{"id":"ILBES","name":"Chicago\/Bensenville","city":"Bensenville","state":"IL","zip":"60106","size":1,"jobs":["Warehouse Associate","General Management Staff","Administrative Support Staff"],"lat":41.983866,"lon":-87.943933}],"Bloomington":[{"id":"ILBLO","name":"Bloomington","city":"Bloomington","state":"IL","zip":"61701","size":1,"jobs":["Package Handler","Driver Helper (Oct-Dec)","Package Delivery Driver","Feeder Driver","Automotive Mechanic","Facilities Mechanic","Part-time Operations Supervisor"],"lat":40.447399,"lon":-89.019932}],"Carol Stream":[{"id":"ILCST","name":"Chicago-scs","city":"Carol Stream","state":"IL","zip":"60188","size":1,"jobs":["Warehouse Associate","General Management Staff"],"lat":41.923254,"lon":-88.102262}],"Decatur":[{"id":"ILDEC","name":"Decatur Hub","city":"Decatur","state":"IL","zip":"62526","size":1,"jobs":["Package Handler","Driver Helper (Oct-Dec)","Package Delivery Driver","Feeder Driver","Automotive Mechanic","Facilities Mechanic","Part-time Operations Supervisor"],"lat":39.860758,"lon":-88.929073}],"Elk Grove Village":[{"id":"ILEGR","name":"Scs Elk Grove - 3844","city":"Elk Grove Village","state":"IL","zip":"60007","size":1,"jobs":["Warehouse Associate","General Management Staff"],"lat":42.018625,"lon":-87.961837}],"Harvey":[{"id":"ILHAR","name":"Harvey\/Chicago Heights","city":"Harvey","state":"IL","zip":"60426","size":1,"jobs":["Package Handler","Driver Helper (Oct-Dec)","Package Delivery Driver","Feeder Driver","Automotive Mechanic","Facilities Mechanic","Part-time Operations Supervisor"],"lat":41.585307,"lon":-87.645598}],"Rockdale":[{"id":"ILJOL","name":"Joliet","city":"Rockdale","state":"IL","zip":"60436","size":1,"jobs":["Package Handler","Driver Helper (Oct-Dec)","Package Delivery Driver","Feeder Driver","Automotive Mechanic","Facilities Mechanic","Part-time Operations Supervisor"],"lat":41.505117,"lon":-88.127671}],"Marion":[{"id":"ILMAR","name":"Marion","city":"Marion","state":"IL","zip":"62959","size":1,"jobs":["Package Handler","Driver Helper (Oct-Dec)","Package Delivery Driver","Feeder Driver","Automotive Mechanic","Facilities Mechanic","Part-time Operations Supervisor"],"lat":37.736758,"lon":-88.950196}],"Aurora":[{"id":"ILOSW","name":"Aurora","city":"Aurora","state":"IL","zip":"60543","size":1,"jobs":["Package Handler","UPS Freight Over the Road Driver","Part-time Operations Supervisor","General Management Staff","Administrative Support Staff"],"lat":41.714796,"lon":-88.29764}],"East Peoria":[{"id":"ILPEO","name":"Peoria","city":"East Peoria","state":"IL","zip":"61611","size":1,"jobs":["Package Handler","Driver Helper (Oct-Dec)","Package Delivery Driver","Feeder Driver","Automotive Mechanic","Facilities Mechanic","Part-time Operations Supervisor"],"lat":40.675328,"lon":-89.581261}],"South Holland":[{"id":"ILSHL","name":"South Holland","city":"South Holland","state":"IL","zip":"60473","size":1,"jobs":["Package Handler","UPS Freight Over the Road Driver","Part-time Operations Supervisor"],"lat":41.581706,"lon":-87.631318}],"Springfield":[{"id":"ILSPR","name":"Springfield","city":"Springfield","state":"IL","zip":"62703","size":1,"jobs":["Package Handler","Driver Helper (Oct-Dec)","Package Delivery Driver","Feeder Driver","Automotive Mechanic","Facilities Mechanic","Part-time Operations Supervisor"],"lat":39.785347,"lon":-89.60336}],"Urbana":[{"id":"ILURB","name":"Urbana","city":"Urbana","state":"IL","zip":"61801","size":1,"jobs":["Package Handler","Driver Helper (Oct-Dec)","Package Delivery Driver","Feeder Driver","Automotive Mechanic","Facilities Mechanic","Part-time Operations Supervisor"],"lat":40.141902,"lon":-88.219958}],"Westmont":[{"id":"ILWES","name":"Westmont","city":"Westmont","state":"IL","zip":"60559","size":1,"jobs":["Package Handler","Driver Helper (Oct-Dec)","Package Delivery Driver","Feeder Driver","Automotive Mechanic","Facilities Mechanic","Part-time Operations Supervisor"],"lat":41.773641,"lon":-87.981198}]}