{"Indianapolis":[{"id":"INI16","name":"16th Street","city":"Indianapolis","state":"IN","zip":"46202","size":0,"jobs":["Package Handler","Driver Helper (Oct-Dec)","Package Delivery Driver","Feeder Driver","Automotive Mechanic","Facilities Mechanic","Sales Representative","Warehouse Associate","UPS Freight Over the Road Driver","Part-time Operations Supervisor","Business Analyst"],"lat":39.788461,"lon":-86.146226},{"id":"INI81","name":"Indianapolis 81st","city":"Indianapolis","state":"IN","zip":"46268","size":0,"jobs":["Package Handler","Driver Helper (Oct-Dec)","Package Delivery Driver","Feeder Driver","Automotive Mechanic","Facilities Mechanic","Sales Representative","Warehouse Associate","UPS Freight Over the Road Driver","Part-time Operations Supervisor","Business Analyst"],"lat":39.90121,"lon":-86.25266},{"id":"INCAS","name":"Castleton","city":"Indianapolis","state":"IN","zip":"46256","size":1,"jobs":["Package Handler","Driver Helper (Oct-Dec)","Package Delivery Driver","Feeder Driver","Automotive Mechanic","Facilities Mechanic","Sales Representative","Warehouse Associate","UPS Freight Over the Road Driver","Part-time Operations Supervisor","Business Analyst"],"lat":39.913016,"lon":-86.041616},{"id":"INPOL","name":"Indianapolis","city":"Indianapolis","state":"IN","zip":"46241","size":1,"jobs":["Package Handler","Driver Helper (Oct-Dec)","Package Delivery Driver","Feeder Driver","Automotive Mechanic","Facilities Mechanic","Sales Representative","Warehouse Associate","UPS Freight Over the Road Driver","Part-time Operations Supervisor","Business Analyst"],"lat":39.749163,"lon":-86.223475}],"Bloomington":[{"id":"INBLO","name":"Bloomington","city":"Bloomington","state":"IN","zip":"47401","size":1,"jobs":["Package Handler","Driver Helper (Oct-Dec)","Package Delivery Driver","Feeder Driver","Automotive Mechanic","Facilities Mechanic","Sales Representative","Warehouse Associate","UPS Freight Over the Road Driver","Part-time Operations Supervisor","Business Analyst"],"lat":39.150569,"lon":-86.577665}],"Bourbon":[{"id":"INBOU","name":"Bourbon","city":"Bourbon","state":"IN","zip":"46504","size":1,"jobs":["Package Handler","Driver Helper (Oct-Dec)","Package Delivery Driver","Feeder Driver","Automotive Mechanic","Facilities Mechanic","Sales Representative","Warehouse Associate","UPS Freight Over the Road Driver","Part-time Operations Supervisor","Business Analyst"],"lat":41.296768,"lon":-86.136067}],"Clarksville":[{"id":"INCLA","name":"Clarksville","city":"Clarksville","state":"IN","zip":"47130","size":1,"jobs":["Package Handler","Driver Helper (Oct-Dec)","Package Delivery Driver","Feeder Driver","Automotive Mechanic","Facilities Mechanic","Sales Representative","Warehouse Associate","UPS Freight Over the Road Driver","Part-time Operations Supervisor","Business Analyst"],"lat":38.33257,"lon":-85.694846}],"Elkhart":[{"id":"INELK","name":"Elkhart","city":"Elkhart","state":"IN","zip":"46515","size":1,"jobs":["Package Handler","Driver Helper (Oct-Dec)","Package Delivery Driver","Feeder Driver","Automotive Mechanic","Facilities Mechanic","Sales Representative","Warehouse Associate","UPS Freight Over the Road Driver","Part-time Operations Supervisor","Business Analyst"],"lat":41.660564,"lon":-85.993288}],"Evansville":[{"id":"INEVA","name":"Evansville","city":"Evansville","state":"IN","zip":"47711","size":1,"jobs":["Package Handler","Driver Helper (Oct-Dec)","Package Delivery Driver","Feeder Driver","Automotive Mechanic","Facilities Mechanic","Sales Representative","Warehouse Associate","UPS Freight Over the Road Driver","Part-time Operations Supervisor","Business Analyst"],"lat":38.000484,"lon":-87.562416}],"Fort Wayne":[{"id":"INFTW","name":"Fort Wayne","city":"Fort Wayne","state":"IN","zip":"46808","size":1,"jobs":["Package Handler","Driver Helper (Oct-Dec)","Package Delivery Driver","Feeder Driver","Automotive Mechanic","Facilities Mechanic","Sales Representative","Warehouse Associate","UPS Freight Over the Road Driver","Part-time Operations Supervisor","Business Analyst"],"lat":41.107877,"lon":-85.176995}],"Hammond":[{"id":"INHAM","name":"Hammond\/East Lake","city":"Hammond","state":"IN","zip":"46324","size":1,"jobs":["Package Handler","Driver Helper (Oct-Dec)","Package Delivery Driver","Feeder Driver","Automotive Mechanic","Facilities Mechanic","Sales Representative","Warehouse Associate","UPS Freight Over the Road Driver","Part-time Operations Supervisor","Business Analyst"],"lat":41.587529,"lon":-87.453106}],"Kokomo":[{"id":"INKOK","name":"Kokomo","city":"Kokomo","state":"IN","zip":"46901","size":1,"jobs":["Package Handler","Driver Helper (Oct-Dec)","Package Delivery Driver","Feeder Driver","Automotive Mechanic","Facilities Mechanic","Sales Representative","Warehouse Associate","UPS Freight Over the Road Driver","Part-time Operations Supervisor","Business Analyst"],"lat":40.494901,"lon":-86.103835}],"Lafayette":[{"id":"INLAF","name":"Lafayette","city":"Lafayette","state":"IN","zip":"47905","size":1,"jobs":["Package Handler","Driver Helper (Oct-Dec)","Package Delivery Driver","Feeder Driver","Automotive Mechanic","Facilities Mechanic","Sales Representative","Warehouse Associate","UPS Freight Over the Road Driver","Part-time Operations Supervisor","Business Analyst"],"lat":40.420559,"lon":-86.849459}],"South Bend":[{"id":"INSOB","name":"South Bend Center","city":"South Bend","state":"IN","zip":"46628","size":1,"jobs":["Package Handler","Driver Helper (Oct-Dec)","Package Delivery Driver","Feeder Driver","Automotive Mechanic","Facilities Mechanic","Sales Representative","Warehouse Associate","UPS Freight Over the Road Driver","Part-time Operations Supervisor","Business Analyst"],"lat":41.707318,"lon":-86.302754}],"Tri-city":[{"id":"INWES","name":"Tri-city (Westville)","city":"Tri-city","state":"IN","zip":"46391","size":1,"jobs":["Package Handler","Driver Helper (Oct-Dec)","Package Delivery Driver","Feeder Driver","Automotive Mechanic","Facilities Mechanic","Sales Representative","Warehouse Associate","UPS Freight Over the Road Driver","Part-time Operations Supervisor","Business Analyst"],"lat":37.090462,"lon":-98.402666}]}