{"Kansas City":[{"id":"KSKAN","name":"Kansas City","city":"Kansas City","state":"KS","zip":"66118","size":0,"jobs":["Package Handler","Driver Helper (Oct-Dec)","Package Delivery Driver","Feeder Driver","Automotive Mechanic","Facilities Mechanic","Part-time Operations Supervisor"],"lat":39.107977,"lon":-94.610402},{"id":"KSKCI","name":"Kansas City","city":"Kansas City","state":"KS","zip":"66106","size":1,"jobs":["Package Handler","UPS Freight Over the Road Driver","Part-time Operations Supervisor"],"lat":39.090451,"lon":-94.671386}],"Lenexa":[{"id":"KSLEN","name":"Lenexa","city":"Lenexa","state":"KS","zip":"66215","size":0,"jobs":["Package Handler","Driver Helper (Oct-Dec)","Package Delivery Driver","Feeder Driver","Automotive Mechanic","Facilities Mechanic","Part-time Operations Supervisor"],"lat":38.931581,"lon":-94.756104}],"Overland Park":[{"id":"KSOPK","name":"Overland Park","city":"Overland Park","state":"KS","zip":"66210","size":1,"jobs":["General Management Staff","Administrative Support Staff"],"lat":38.932746,"lon":-94.676283}],"Salina":[{"id":"KSSAL","name":"Salina","city":"Salina","state":"KS","zip":"67401","size":1,"jobs":["Package Handler","Driver Helper (Oct-Dec)","Package Delivery Driver","Feeder Driver","Automotive Mechanic","Facilities Mechanic","Part-time Operations Supervisor"],"lat":38.850097,"lon":-97.629338}],"Topeka":[{"id":"KSTOP","name":"Topeka","city":"Topeka","state":"KS","zip":"66604","size":1,"jobs":["Package Handler","Driver Helper (Oct-Dec)","Package Delivery Driver","Feeder Driver","Automotive Mechanic","Facilities Mechanic","Part-time Operations Supervisor"],"lat":39.058587,"lon":-95.664804}],"Wichita":[{"id":"KSWIC","name":"Wichita (South & North)","city":"Wichita","state":"KS","zip":"67217","size":1,"jobs":["Package Handler","Driver Helper (Oct-Dec)","Package Delivery Driver","Feeder Driver","Automotive Mechanic","Facilities Mechanic","Part-time Operations Supervisor"],"lat":37.63975,"lon":-97.390761}]}