{"Louisville":[{"id":"KYALH","name":"UPSCO Airline Hangar","city":"Louisville","state":"KY","zip":"40213","size":0,"jobs":["Package Handler","Feeder Driver","Part-time Operations Supervisor"],"lat":38.160764,"lon":-85.728404},{"id":"KYALN","name":"UPSCO Airline","city":"Louisville","state":"KY","zip":"40213","size":0,"jobs":["Package Handler","Feeder Driver","Part-time Operations Supervisor"],"lat":38.158086,"lon":-85.727949},{"id":"KYARP","name":"Air Group Building","city":"Louisville","state":"KY","zip":"40223","size":0,"jobs":["General Management Staff","Administrative Support Staff"],"lat":38.266735,"lon":-85.566846},{"id":"KYASH","name":"Ashbottom Hub","city":"Louisville","state":"KY","zip":"40213","size":0,"jobs":["Package Handler","Driver Helper (Oct-Dec)","Package Delivery Driver","Feeder Driver","Automotive Mechanic","Facilities Mechanic","Part-time Operations Supervisor"],"lat":38.167073,"lon":-85.733689},{"id":"KYCHB","name":"Custom House Brokerage","city":"Louisville","state":"KY","zip":"40218","size":0,"jobs":["General Management Staff","Administrative Support Staff"],"lat":38.201699,"lon":-85.683398},{"id":"KYGRA","name":"Worldport","city":"Louisville","state":"KY","zip":"40213","size":0,"jobs":["Package Handler","Feeder Driver","Part-time Operations Supervisor"],"lat":38.16291,"lon":-85.721995},{"id":"KYLOA","name":"UPSCO Global Operations Center","city":"Louisville","state":"KY","zip":"40213","size":0,"jobs":["General Management Staff","Administrative Support Staff"],"lat":38.163718,"lon":-85.719729},{"id":"KYSVL","name":"Worldport Freight Facility","city":"Louisville","state":"KY","zip":"40213","size":0,"jobs":["Warehouse Associate","General Management Staff"],"lat":38.156688,"lon":-85.734092},{"id":"KYVLE","name":"SCS 1860 Outer Loop","city":"Louisville","state":"KY","zip":"40219","size":0,"jobs":["Warehouse Associate","General Management Staff"],"lat":38.125485,"lon":-85.738748},{"id":"KYAMD","name":"Aircraft Materials Distributio","city":"Louisville","state":"KY","zip":"40213","size":1,"jobs":["General Management Staff","Administrative Support Staff"],"lat":38.159016,"lon":-85.729765},{"id":"KYBLU","name":"Bluegrass","city":"Louisville","state":"KY","zip":"40299","size":1,"jobs":["Package Handler","Driver Helper (Oct-Dec)","Package Delivery Driver","Feeder Driver","Automotive Mechanic","Facilities Mechanic","Part-time Operations Supervisor"],"lat":38.221085,"lon":-85.549746},{"id":"KYEBP","name":"Louisville","city":"Louisville","state":"KY","zip":"40299","size":1,"jobs":["Package Handler","UPS Freight Over the Road Driver","Part-time Operations Supervisor"],"lat":38.220634,"lon":-85.568529},{"id":"KYLLL","name":"Outerloop Building 2","city":"Louisville","state":"KY","zip":"40219","size":1,"jobs":["Warehouse Associate","General Management Staff"],"lat":38.12676,"lon":-85.776803},{"id":"KYLOE","name":"WWL Outerloop Bldg","city":"Louisville","state":"KY","zip":"40219","size":1,"jobs":["Warehouse Associate","General Management Staff"],"lat":38.131576,"lon":-85.729927},{"id":"KYLOL","name":"Louisville Tech And Log Center","city":"Louisville","state":"KY","zip":"40219","size":1,"jobs":["Warehouse Associate","General Management Staff"],"lat":38.124232,"lon":-85.727164},{"id":"KYLSE","name":"Outerloop Building 5","city":"Louisville","state":"KY","zip":"40219","size":1,"jobs":["Warehouse Associate","General Management Staff"],"lat":38.131703,"lon":-85.729438},{"id":"KYLSV","name":"Outerloop Building 6","city":"Louisville","state":"KY","zip":"40219","size":1,"jobs":["Warehouse Associate","General Management Staff"],"lat":38.135817,"lon":-85.693985},{"id":"KYLUV","name":"Building 7","city":"Louisville","state":"KY","zip":"40219","size":1,"jobs":["Warehouse Associate","General Management Staff"],"lat":38.131836,"lon":-85.728951},{"id":"KYNAT","name":"UPS National Turnpike","city":"Louisville","state":"KY","zip":"40214","size":1,"jobs":["General Management Staff","Administrative Support Staff"],"lat":38.13075,"lon":-85.749595},{"id":"KYTRN","name":"Training Center","city":"Louisville","state":"KY","zip":"40213","size":1,"jobs":["General Management Staff","Administrative Support Staff"],"lat":38.159448,"lon":-85.727151},{"id":"KYVIL","name":"Outerloop Building 4","city":"Louisville","state":"KY","zip":"40219","size":1,"jobs":["Warehouse Associate","General Management Staff"],"lat":38.13164,"lon":-85.729682},{"id":"KYVLL","name":"Outerloop Healthcare Facility","city":"Louisville","state":"KY","zip":"40219","size":1,"jobs":["Warehouse Associate","General Management Staff"],"lat":38.335911,"lon":-85.410907}],"Lexington":[{"id":"KYLEX","name":"Lexington","city":"Lexington","state":"KY","zip":"40511","size":0,"jobs":["Package Handler","Driver Helper (Oct-Dec)","Package Delivery Driver","Feeder Driver","Automotive Mechanic","Facilities Mechanic","Part-time Operations Supervisor"],"lat":38.07483,"lon":-84.528628},{"id":"KYLXO","name":"Lexington","city":"Lexington","state":"KY","zip":"40509","size":1,"jobs":["Package Handler","UPS Freight Over the Road Driver","Part-time Operations Supervisor"],"lat":37.963877,"lon":-84.38211}],"Bowling Green":[{"id":"KYBOW","name":"Bowling Green","city":"Bowling Green","state":"KY","zip":"42101","size":1,"jobs":["Package Handler","Driver Helper (Oct-Dec)","Package Delivery Driver","Feeder Driver","Automotive Mechanic","Facilities Mechanic","Part-time Operations Supervisor"],"lat":36.962779,"lon":-86.48222}],"Elizabethtown":[{"id":"KYELI","name":"UPS e-Logistics\/Elizabethtown","city":"Elizabethtown","state":"KY","zip":"42701","size":1,"jobs":["Warehouse Associate","General Management Staff"],"lat":37.677844,"lon":-85.927671}],"Elsmere":[{"id":"KYFOU","name":"Kentucky View","city":"Elsmere","state":"KY","zip":"41018","size":1,"jobs":["Package Handler","Driver Helper (Oct-Dec)","Package Delivery Driver","Feeder Driver","Automotive Mechanic","Facilities Mechanic","Part-time Operations Supervisor"],"lat":38.981111,"lon":-84.599745}],"Hebron":[{"id":"KYHBR","name":"SCS Hebron","city":"Hebron","state":"KY","zip":"41048","size":1,"jobs":["Warehouse Associate","General Management Staff"],"lat":39.082756,"lon":-84.722556}],"Owensboro":[{"id":"KYOWE","name":"Owensboro","city":"Owensboro","state":"KY","zip":"42301","size":1,"jobs":["Package Handler","Driver Helper (Oct-Dec)","Package Delivery Driver","Feeder Driver","Automotive Mechanic","Facilities Mechanic","Part-time Operations Supervisor"],"lat":37.783077,"lon":-87.146593}],"Paducah":[{"id":"KYPAD","name":"Paducah","city":"Paducah","state":"KY","zip":"42001","size":1,"jobs":["Package Handler","Driver Helper (Oct-Dec)","Package Delivery Driver","Feeder Driver","Automotive Mechanic","Facilities Mechanic","Part-time Operations Supervisor"],"lat":37.041743,"lon":-88.564181}]}