{"New Orleans":[{"id":"LANOR","name":"New Orleans","city":"New Orleans","state":"LA","zip":"70126","size":0,"jobs":["Package Handler","Driver Helper (Oct-Dec)","Package Delivery Driver","Feeder Driver","Automotive Mechanic","Facilities Mechanic","Sales Representative","Warehouse Associate","UPS Freight Over the Road Driver","Part-time Operations Supervisor","Business Analyst"],"lat":30.024945,"lon":-90.028435}],"Baton Rouge":[{"id":"LABAK","name":"Baker","city":"Baton Rouge","state":"LA","zip":"70807","size":1,"jobs":["Package Handler","Driver Helper (Oct-Dec)","Package Delivery Driver","Feeder Driver","Automotive Mechanic","Facilities Mechanic","Sales Representative","Warehouse Associate","UPS Freight Over the Road Driver","Part-time Operations Supervisor","Business Analyst"],"lat":30.530916,"lon":-91.161994}],"Metairie":[{"id":"LAEAR","name":"Earhart Package Centers","city":"Metairie","state":"LA","zip":"70001","size":1,"jobs":["Package Handler","Driver Helper (Oct-Dec)","Package Delivery Driver","Feeder Driver","Automotive Mechanic","Facilities Mechanic","Sales Representative","Warehouse Associate","UPS Freight Over the Road Driver","Part-time Operations Supervisor","Business Analyst"],"lat":29.970044,"lon":-90.178967}],"Harvey":[{"id":"LAHAV","name":"Harvey","city":"Harvey","state":"LA","zip":"70058","size":1,"jobs":["Package Handler","Driver Helper (Oct-Dec)","Package Delivery Driver","Feeder Driver","Automotive Mechanic","Facilities Mechanic","Sales Representative","Warehouse Associate","UPS Freight Over the Road Driver","Part-time Operations Supervisor","Business Analyst"],"lat":29.86997,"lon":-90.083712}],"Grey":[{"id":"LAHMA","name":"Houma Center","city":"Grey","state":"LA","zip":"70359","size":1,"jobs":["Package Handler","Driver Helper (Oct-Dec)","Package Delivery Driver","Feeder Driver","Automotive Mechanic","Facilities Mechanic","Sales Representative","Warehouse Associate","UPS Freight Over the Road Driver","Part-time Operations Supervisor","Business Analyst"],"lat":29.740962,"lon":-90.80796}],"Lafayette":[{"id":"LALAF","name":"Lafayette","city":"Lafayette","state":"LA","zip":"70508","size":1,"jobs":["Package Handler","Driver Helper (Oct-Dec)","Package Delivery Driver","Feeder Driver","Automotive Mechanic","Facilities Mechanic","Sales Representative","Warehouse Associate","UPS Freight Over the Road Driver","Part-time Operations Supervisor","Business Analyst"],"lat":30.168788,"lon":-91.987998}],"Lake Charles":[{"id":"LALKC","name":"Lake Charles","city":"Lake Charles","state":"LA","zip":"70601","size":1,"jobs":["Package Handler","Driver Helper (Oct-Dec)","Package Delivery Driver","Feeder Driver","Automotive Mechanic","Facilities Mechanic","Sales Representative","Warehouse Associate","UPS Freight Over the Road Driver","Part-time Operations Supervisor","Business Analyst"],"lat":30.23423,"lon":-93.183947}],"Port Allen":[{"id":"LAPOR","name":"Port Allen","city":"Port Allen","state":"LA","zip":"70767","size":1,"jobs":["Package Handler","Driver Helper (Oct-Dec)","Package Delivery Driver","Feeder Driver","Automotive Mechanic","Facilities Mechanic","Sales Representative","Warehouse Associate","UPS Freight Over the Road Driver","Part-time Operations Supervisor","Business Analyst"],"lat":30.444436,"lon":-91.212842}],"Shreveport":[{"id":"LASHR","name":"Shreveport","city":"Shreveport","state":"LA","zip":"71103","size":1,"jobs":["Package Handler","Driver Helper (Oct-Dec)","Package Delivery Driver","Feeder Driver","Automotive Mechanic","Facilities Mechanic","Sales Representative","Warehouse Associate","UPS Freight Over the Road Driver","Part-time Operations Supervisor","Business Analyst"],"lat":32.483104,"lon":-93.770015}]}