{"Chelmsford":[{"id":"MACHE","name":"Chelmsford","city":"Chelmsford","state":"MA","zip":"01824","size":0,"jobs":["Package Handler","Driver Helper (Oct-Dec)","Package Delivery Driver","Feeder Driver","Automotive Mechanic","Facilities Mechanic","Sales Representative","Warehouse Associate","UPS Freight Over the Road Driver","Part-time Operations Supervisor","Business Analyst"],"lat":42.594062,"lon":-71.305255}],"Norwood":[{"id":"MANOR","name":"Norwood","city":"Norwood","state":"MA","zip":"02062","size":0,"jobs":["Package Handler","Driver Helper (Oct-Dec)","Package Delivery Driver","Feeder Driver","Automotive Mechanic","Facilities Mechanic","Sales Representative","Warehouse Associate","UPS Freight Over the Road Driver","Part-time Operations Supervisor","Business Analyst"],"lat":42.207378,"lon":-71.178735}],"Shrewsbury":[{"id":"MAWOR","name":"Worcester","city":"Shrewsbury","state":"MA","zip":"01545","size":0,"jobs":["Package Handler","Driver Helper (Oct-Dec)","Package Delivery Driver","Feeder Driver","Automotive Mechanic","Facilities Mechanic","Sales Representative","Warehouse Associate","UPS Freight Over the Road Driver","Part-time Operations Supervisor","Business Analyst"],"lat":42.252536,"lon":-71.714895}],"Brockton":[{"id":"MABRO","name":"Brockton","city":"Brockton","state":"MA","zip":"02301","size":1,"jobs":["Package Handler","Driver Helper (Oct-Dec)","Package Delivery Driver","Feeder Driver","Automotive Mechanic","Facilities Mechanic","Sales Representative","Warehouse Associate","UPS Freight Over the Road Driver","Part-time Operations Supervisor","Business Analyst"],"lat":42.049558,"lon":-71.001758}],"Dartmouth":[{"id":"MADAR","name":"Dartmouth","city":"Dartmouth","state":"MA","zip":"02747","size":1,"jobs":["Package Handler","Driver Helper (Oct-Dec)","Package Delivery Driver","Feeder Driver","Automotive Mechanic","Facilities Mechanic","Sales Representative","Warehouse Associate","UPS Freight Over the Road Driver","Part-time Operations Supervisor","Business Analyst"],"lat":41.653111,"lon":-71.001344}],"East Boston":[{"id":"MALOG","name":"Logan Airport","city":"East Boston","state":"MA","zip":"02128","size":1,"jobs":["Package Handler","Driver Helper (Oct-Dec)","Package Delivery Driver","Feeder Driver","Automotive Mechanic","Facilities Mechanic","Sales Representative","Warehouse Associate","UPS Freight Over the Road Driver","Part-time Operations Supervisor","Business Analyst"],"lat":42.365613,"lon":-71.00956}],"Lynnfield":[{"id":"MALYN","name":"Lynnfield","city":"Lynnfield","state":"MA","zip":"01940","size":1,"jobs":["Package Handler","Driver Helper (Oct-Dec)","Package Delivery Driver","Feeder Driver","Automotive Mechanic","Facilities Mechanic","Sales Representative","Warehouse Associate","UPS Freight Over the Road Driver","Part-time Operations Supervisor","Business Analyst"],"lat":42.508447,"lon":-71.034102}],"Sagamore Beach":[{"id":"MASAG","name":"Sagamore","city":"Sagamore Beach","state":"MA","zip":"02562","size":1,"jobs":["Package Handler","Driver Helper (Oct-Dec)","Package Delivery Driver","Feeder Driver","Automotive Mechanic","Facilities Mechanic","Sales Representative","Warehouse Associate","UPS Freight Over the Road Driver","Part-time Operations Supervisor","Business Analyst"],"lat":41.797944,"lon":-70.529575}],"South Boston":[{"id":"MASBO","name":"South Boston","city":"South Boston","state":"MA","zip":"02210","size":1,"jobs":["Package Handler","Driver Helper (Oct-Dec)","Package Delivery Driver","Feeder Driver","Automotive Mechanic","Facilities Mechanic","Sales Representative","Warehouse Associate","UPS Freight Over the Road Driver","Part-time Operations Supervisor","Business Analyst"],"lat":42.340711,"lon":-71.041812}],"Somerville":[{"id":"MASOM","name":"Somerville","city":"Somerville","state":"MA","zip":"02143","size":1,"jobs":["Package Handler","Driver Helper (Oct-Dec)","Package Delivery Driver","Feeder Driver","Automotive Mechanic","Facilities Mechanic","Sales Representative","Warehouse Associate","UPS Freight Over the Road Driver","Part-time Operations Supervisor","Business Analyst"],"lat":42.377929,"lon":-71.078284}],"W Springfield":[{"id":"MASPR","name":"Springfield","city":"W Springfield","state":"MA","zip":"01089","size":1,"jobs":["Package Handler","Driver Helper (Oct-Dec)","Package Delivery Driver","Feeder Driver","Automotive Mechanic","Facilities Mechanic","Sales Representative","Warehouse Associate","UPS Freight Over the Road Driver","Part-time Operations Supervisor","Business Analyst"],"lat":42.141984,"lon":-72.624377}],"Watertown":[{"id":"MAWAT","name":"Watertown","city":"Watertown","state":"MA","zip":"02472","size":1,"jobs":["Package Handler","Driver Helper (Oct-Dec)","Package Delivery Driver","Feeder Driver","Automotive Mechanic","Facilities Mechanic","Sales Representative","Warehouse Associate","UPS Freight Over the Road Driver","Part-time Operations Supervisor","Business Analyst"],"lat":42.363631,"lon":-71.153458}],"West Yarmouth":[{"id":"MAYAR","name":"Yarmouth","city":"West Yarmouth","state":"MA","zip":"02673","size":1,"jobs":["Package Handler","Driver Helper (Oct-Dec)","Package Delivery Driver","Feeder Driver","Automotive Mechanic","Facilities Mechanic","Sales Representative","Warehouse Associate","UPS Freight Over the Road Driver","Part-time Operations Supervisor","Business Analyst"],"lat":41.680773,"lon":-70.256343}]}