{"Baltimore":[{"id":"MDBAL","name":"Baltimore","city":"Baltimore","state":"MD","zip":"21227","size":0,"jobs":["Package Handler","Driver Helper (Oct-Dec)","Package Delivery Driver","Feeder Driver","Automotive Mechanic","Facilities Mechanic","Part-time Operations Supervisor"],"lat":39.261308,"lon":-76.675436},{"id":"MDELR","name":"Baltimore","city":"Baltimore","state":"MD","zip":"21075","size":1,"jobs":["Package Handler","UPS Freight Over the Road Driver","Part-time Operations Supervisor"],"lat":39.200926,"lon":-76.735696},{"id":"MDQUA","name":"Quad Avenue","city":"Baltimore","state":"MD","zip":"21205","size":1,"jobs":["Package Handler","Driver Helper (Oct-Dec)","Package Delivery Driver","Feeder Driver","Automotive Mechanic","Facilities Mechanic","Part-time Operations Supervisor"],"lat":39.299048,"lon":-76.537454}],"Laurel":[{"id":"MDBUR","name":"Burtonsville","city":"Laurel","state":"MD","zip":"20707","size":0,"jobs":["Package Handler","Driver Helper (Oct-Dec)","Package Delivery Driver","Feeder Driver","Automotive Mechanic","Facilities Mechanic","Part-time Operations Supervisor"],"lat":39.095131,"lon":-76.895124}],"Sparks":[{"id":"MDHUN","name":"Hunt Valley","city":"Sparks","state":"MD","zip":"21152","size":0,"jobs":["Package Handler","Driver Helper (Oct-Dec)","Package Delivery Driver","Feeder Driver","Automotive Mechanic","Facilities Mechanic","Part-time Operations Supervisor"],"lat":39.523183,"lon":-76.571977}],"Landover":[{"id":"MDLDC","name":"Dc Building","city":"Landover","state":"MD","zip":"20785","size":0,"jobs":["Package Handler","Driver Helper (Oct-Dec)","Package Delivery Driver","Feeder Driver","Automotive Mechanic","Facilities Mechanic","Part-time Operations Supervisor"],"lat":38.919638,"lon":-76.862616},{"id":"MDLAN","name":"Landover","city":"Landover","state":"MD","zip":"20785","size":1,"jobs":["Package Handler","Driver Helper (Oct-Dec)","Package Delivery Driver","Feeder Driver","Automotive Mechanic","Facilities Mechanic","Part-time Operations Supervisor"],"lat":38.921515,"lon":-76.86616}],"Easton":[{"id":"MDEAS","name":"Easton","city":"Easton","state":"MD","zip":"21601","size":1,"jobs":["Package Handler","Driver Helper (Oct-Dec)","Package Delivery Driver","Feeder Driver","Automotive Mechanic","Facilities Mechanic","Part-time Operations Supervisor"],"lat":38.774283,"lon":-76.07633}],"Frederick":[{"id":"MDFRE","name":"Frederick","city":"Frederick","state":"MD","zip":"21701","size":1,"jobs":["Package Handler","Driver Helper (Oct-Dec)","Package Delivery Driver","Feeder Driver","Automotive Mechanic","Facilities Mechanic","Part-time Operations Supervisor"],"lat":39.363645,"lon":-77.431912}],"Gaithersburg":[{"id":"MDGAI","name":"Gaithersburg-package Center","city":"Gaithersburg","state":"MD","zip":"20877","size":1,"jobs":["Package Handler","Driver Helper (Oct-Dec)","Package Delivery Driver","Feeder Driver","Automotive Mechanic","Facilities Mechanic","Part-time Operations Supervisor"],"lat":39.120692,"lon":-77.191799}],"Hagerstown":[{"id":"MDHAG","name":"Hagerstown","city":"Hagerstown","state":"MD","zip":"21740","size":1,"jobs":["Package Handler","Driver Helper (Oct-Dec)","Package Delivery Driver","Feeder Driver","Automotive Mechanic","Facilities Mechanic","Part-time Operations Supervisor"],"lat":39.610993,"lon":-77.723345}],"Timonium":[{"id":"MDROA","name":"Roadnet Technology","city":"Timonium","state":"MD","zip":"21093","size":1,"jobs":["Information Technology Staff"],"lat":39.449621,"lon":-76.629987}],"Salisbury":[{"id":"MDSAL","name":"Salisbury","city":"Salisbury","state":"MD","zip":"21801","size":1,"jobs":["Package Handler","Driver Helper (Oct-Dec)","Package Delivery Driver","Feeder Driver","Automotive Mechanic","Facilities Mechanic","Part-time Operations Supervisor"],"lat":38.403616,"lon":-75.580381}],"Waldorf":[{"id":"MDWAL","name":"Waldorf","city":"Waldorf","state":"MD","zip":"20602","size":1,"jobs":["Package Handler","Driver Helper (Oct-Dec)","Package Delivery Driver","Feeder Driver","Automotive Mechanic","Facilities Mechanic","Part-time Operations Supervisor"],"lat":38.619966,"lon":-76.907805}]}