{"Wyoming":[{"id":"MIGRN","name":"Grand Rapids Hub","city":"Wyoming","state":"MI","zip":"49509","size":0,"jobs":["Package Handler","Driver Helper (Oct-Dec)","Package Delivery Driver","Feeder Driver","Automotive Mechanic","Facilities Mechanic","Sales Representative","Warehouse Associate","UPS Freight Over the Road Driver","Part-time Operations Supervisor","Business Analyst"],"lat":42.860412,"lon":-85.686744}],"Livonia":[{"id":"MILIV","name":"Livonia Hub","city":"Livonia","state":"MI","zip":"48150","size":0,"jobs":["Package Handler","Driver Helper (Oct-Dec)","Package Delivery Driver","Feeder Driver","Automotive Mechanic","Facilities Mechanic","Sales Representative","Warehouse Associate","UPS Freight Over the Road Driver","Part-time Operations Supervisor","Business Analyst"],"lat":42.381889,"lon":-83.338157}],"Madison Heights":[{"id":"MIMAD","name":"Madison Heights","city":"Madison Heights","state":"MI","zip":"48071","size":0,"jobs":["Package Handler","Driver Helper (Oct-Dec)","Package Delivery Driver","Feeder Driver","Automotive Mechanic","Facilities Mechanic","Sales Representative","Warehouse Associate","UPS Freight Over the Road Driver","Part-time Operations Supervisor","Business Analyst"],"lat":42.524932,"lon":-83.092707}],"Battle Creek":[{"id":"MIBCK","name":"Battle Creek Center","city":"Battle Creek","state":"MI","zip":"49017","size":1,"jobs":["Package Handler","Driver Helper (Oct-Dec)","Package Delivery Driver","Feeder Driver","Automotive Mechanic","Facilities Mechanic","Sales Representative","Warehouse Associate","UPS Freight Over the Road Driver","Part-time Operations Supervisor","Business Analyst"],"lat":42.286208,"lon":-85.156929}],"Detroit":[{"id":"MICIC","name":"Cicotte","city":"Detroit","state":"MI","zip":"48210","size":1,"jobs":["Package Handler","Driver Helper (Oct-Dec)","Package Delivery Driver","Feeder Driver","Automotive Mechanic","Facilities Mechanic","Sales Representative","Warehouse Associate","UPS Freight Over the Road Driver","Part-time Operations Supervisor","Business Analyst"],"lat":42.343233,"lon":-83.133483},{"id":"MIRUS","name":"Detroit","city":"Detroit","state":"MI","zip":"48174","size":1,"jobs":["Package Handler","Driver Helper (Oct-Dec)","Package Delivery Driver","Feeder Driver","Automotive Mechanic","Facilities Mechanic","Sales Representative","Warehouse Associate","UPS Freight Over the Road Driver","Part-time Operations Supervisor","Business Analyst"],"lat":42.338212,"lon":-83.312055},{"id":"MIWOO","name":"Woodbridge","city":"Detroit","state":"MI","zip":"48205","size":1,"jobs":["Package Handler","Driver Helper (Oct-Dec)","Package Delivery Driver","Feeder Driver","Automotive Mechanic","Facilities Mechanic","Sales Representative","Warehouse Associate","UPS Freight Over the Road Driver","Part-time Operations Supervisor","Business Analyst"],"lat":42.443098,"lon":-83.007409}],"Romulus":[{"id":"MIDTW","name":"Detroit Airport","city":"Romulus","state":"MI","zip":"48174","size":1,"jobs":["Package Handler","Driver Helper (Oct-Dec)","Package Delivery Driver","Feeder Driver","Automotive Mechanic","Facilities Mechanic","Sales Representative","Warehouse Associate","UPS Freight Over the Road Driver","Part-time Operations Supervisor","Business Analyst"],"lat":42.209769,"lon":-83.332449}],"Flint":[{"id":"MIFLI","name":"Flint","city":"Flint","state":"MI","zip":"48507","size":1,"jobs":["Package Handler","Driver Helper (Oct-Dec)","Package Delivery Driver","Feeder Driver","Automotive Mechanic","Facilities Mechanic","Sales Representative","Warehouse Associate","UPS Freight Over the Road Driver","Part-time Operations Supervisor","Business Analyst"],"lat":42.976432,"lon":-83.755724}],"Howell":[{"id":"MIHOW","name":"Howell","city":"Howell","state":"MI","zip":"48843","size":1,"jobs":["Package Handler","Driver Helper (Oct-Dec)","Package Delivery Driver","Feeder Driver","Automotive Mechanic","Facilities Mechanic","Sales Representative","Warehouse Associate","UPS Freight Over the Road Driver","Part-time Operations Supervisor","Business Analyst"],"lat":42.579446,"lon":-83.881242}],"St. Joseph":[{"id":"MIJOS","name":"St. Joseph Center","city":"St. Joseph","state":"MI","zip":"49085","size":1,"jobs":["Package Handler","Driver Helper (Oct-Dec)","Package Delivery Driver","Feeder Driver","Automotive Mechanic","Facilities Mechanic","Sales Representative","Warehouse Associate","UPS Freight Over the Road Driver","Part-time Operations Supervisor","Business Analyst"],"lat":42.055391,"lon":-86.462169}],"Oshtemo":[{"id":"MIKAL","name":"Kalamazoo","city":"Oshtemo","state":"MI","zip":"49009","size":1,"jobs":["Package Handler","Driver Helper (Oct-Dec)","Package Delivery Driver","Feeder Driver","Automotive Mechanic","Facilities Mechanic","Sales Representative","Warehouse Associate","UPS Freight Over the Road Driver","Part-time Operations Supervisor","Business Analyst"],"lat":42.240599,"lon":-85.680378}],"Lansing":[{"id":"MILAN","name":"Lansing","city":"Lansing","state":"MI","zip":"48910","size":1,"jobs":["Package Handler","Driver Helper (Oct-Dec)","Package Delivery Driver","Feeder Driver","Automotive Mechanic","Facilities Mechanic","Sales Representative","Warehouse Associate","UPS Freight Over the Road Driver","Part-time Operations Supervisor","Business Analyst"],"lat":42.672678,"lon":-84.528779},{"id":"MILAR","name":"Air Facility, Airsort","city":"Lansing","state":"MI","zip":"48906","size":1,"jobs":["Package Handler","Driver Helper (Oct-Dec)","Package Delivery Driver","Feeder Driver","Automotive Mechanic","Facilities Mechanic","Sales Representative","Warehouse Associate","UPS Freight Over the Road Driver","Part-time Operations Supervisor","Business Analyst"],"lat":42.772113,"lon":-84.584595}],"Muskegon":[{"id":"MIMUS","name":"Muskegon","city":"Muskegon","state":"MI","zip":"49444","size":1,"jobs":["Package Handler","Driver Helper (Oct-Dec)","Package Delivery Driver","Feeder Driver","Automotive Mechanic","Facilities Mechanic","Sales Representative","Warehouse Associate","UPS Freight Over the Road Driver","Part-time Operations Supervisor","Business Analyst"],"lat":43.209542,"lon":-86.21657}],"Pontiac":[{"id":"MIPON","name":"Pontiac","city":"Pontiac","state":"MI","zip":"48340","size":1,"jobs":["Package Handler","Driver Helper (Oct-Dec)","Package Delivery Driver","Feeder Driver","Automotive Mechanic","Facilities Mechanic","Sales Representative","Warehouse Associate","UPS Freight Over the Road Driver","Part-time Operations Supervisor","Business Analyst"],"lat":42.661464,"lon":-83.320527}],"Saginaw":[{"id":"MISAG","name":"Saginaw","city":"Saginaw","state":"MI","zip":"48603","size":1,"jobs":["Package Handler","Driver Helper (Oct-Dec)","Package Delivery Driver","Feeder Driver","Automotive Mechanic","Facilities Mechanic","Sales Representative","Warehouse Associate","UPS Freight Over the Road Driver","Part-time Operations Supervisor","Business Analyst"],"lat":43.464301,"lon":-83.978508}],"Taylor":[{"id":"MITAY","name":"Taylor","city":"Taylor","state":"MI","zip":"48180","size":1,"jobs":["Package Handler","Driver Helper (Oct-Dec)","Package Delivery Driver","Feeder Driver","Automotive Mechanic","Facilities Mechanic","Sales Representative","Warehouse Associate","UPS Freight Over the Road Driver","Part-time Operations Supervisor","Business Analyst"],"lat":42.212659,"lon":-83.284392}],"Traverse City":[{"id":"MITCY","name":"Traverse City Center","city":"Traverse City","state":"MI","zip":"49684","size":1,"jobs":["Package Handler","Driver Helper (Oct-Dec)","Package Delivery Driver","Feeder Driver","Automotive Mechanic","Facilities Mechanic","Sales Representative","Warehouse Associate","UPS Freight Over the Road Driver","Part-time Operations Supervisor","Business Analyst"],"lat":44.715212,"lon":-85.598833}],"Wixom":[{"id":"MIWIX","name":"Wixom","city":"Wixom","state":"MI","zip":"48393","size":1,"jobs":["Package Handler","Driver Helper (Oct-Dec)","Package Delivery Driver","Feeder Driver","Automotive Mechanic","Facilities Mechanic","Sales Representative","Warehouse Associate","UPS Freight Over the Road Driver","Part-time Operations Supervisor","Business Analyst"],"lat":42.513747,"lon":-83.538044}],"Ypsilanti":[{"id":"MIYPS","name":"Ypsilanti","city":"Ypsilanti","state":"MI","zip":"48197","size":1,"jobs":["Package Handler","Driver Helper (Oct-Dec)","Package Delivery Driver","Feeder Driver","Automotive Mechanic","Facilities Mechanic","Sales Representative","Warehouse Associate","UPS Freight Over the Road Driver","Part-time Operations Supervisor","Business Analyst"],"lat":42.231558,"lon":-83.632923}]}