{"Minneapolis":[{"id":"MNMIN","name":"Minneapolis","city":"Minneapolis","state":"MN","zip":"55413","size":0,"jobs":["Package Handler","Driver Helper (Oct-Dec)","Package Delivery Driver","Feeder Driver","Automotive Mechanic","Facilities Mechanic","Sales Representative","Warehouse Associate","UPS Freight Over the Road Driver","Part-time Operations Supervisor","Business Analyst"],"lat":44.998034,"lon":93.215638},{"id":"MNMTP","name":"Minneapolis - St. Paul Airport","city":"Minneapolis","state":"MN","zip":"55450","size":1,"jobs":["Package Handler","Driver Helper (Oct-Dec)","Package Delivery Driver","Feeder Driver","Automotive Mechanic","Facilities Mechanic","Sales Representative","Warehouse Associate","UPS Freight Over the Road Driver","Part-time Operations Supervisor","Business Analyst"],"lat":44.875493,"lon":-93.246597}],"Maple Grove":[{"id":"MNMPL","name":"Maple Grove","city":"Maple Grove","state":"MN","zip":"55369","size":0,"jobs":["Package Handler","Driver Helper (Oct-Dec)","Package Delivery Driver","Feeder Driver","Automotive Mechanic","Facilities Mechanic","Sales Representative","Warehouse Associate","UPS Freight Over the Road Driver","Part-time Operations Supervisor","Business Analyst"],"lat":45.112463,"lon":-93.41869}],"Eagan":[{"id":"MNSPH","name":"St. Paul Hub","city":"Eagan","state":"MN","zip":"55123","size":0,"jobs":["Package Handler","Driver Helper (Oct-Dec)","Package Delivery Driver","Feeder Driver","Automotive Mechanic","Facilities Mechanic","Sales Representative","Warehouse Associate","UPS Freight Over the Road Driver","Part-time Operations Supervisor","Business Analyst"],"lat":44.828382,"lon":-93.10985}],"Blaine":[{"id":"MNBLA","name":"Minneapolis","city":"Blaine","state":"MN","zip":"55449","size":1,"jobs":["Package Handler","Driver Helper (Oct-Dec)","Package Delivery Driver","Feeder Driver","Automotive Mechanic","Facilities Mechanic","Sales Representative","Warehouse Associate","UPS Freight Over the Road Driver","Part-time Operations Supervisor","Business Analyst"],"lat":45.125896,"lon":-93.185536}],"Duluth":[{"id":"MNDUL","name":"Duluth","city":"Duluth","state":"MN","zip":"55801","size":1,"jobs":["Package Handler","Driver Helper (Oct-Dec)","Package Delivery Driver","Feeder Driver","Automotive Mechanic","Facilities Mechanic","Sales Representative","Warehouse Associate","UPS Freight Over the Road Driver","Part-time Operations Supervisor","Business Analyst"],"lat":46.753064,"lon":-92.102139}],"St. Cloud":[{"id":"MNSTC","name":"St. Cloud","city":"St. Cloud","state":"MN","zip":"56304","size":1,"jobs":["Package Handler","Driver Helper (Oct-Dec)","Package Delivery Driver","Feeder Driver","Automotive Mechanic","Facilities Mechanic","Sales Representative","Warehouse Associate","UPS Freight Over the Road Driver","Part-time Operations Supervisor","Business Analyst"],"lat":45.50103,"lon":-94.061695}]}