{"Charlotte":[{"id":"NCCHA","name":"Charlotte Hub","city":"Charlotte","state":"NC","zip":"28206","size":0,"jobs":["Package Handler","Driver Helper (Oct-Dec)","Package Delivery Driver","Feeder Driver","Automotive Mechanic","Facilities Mechanic","Part-time Operations Supervisor"],"lat":35.275355,"lon":-80.811391},{"id":"NCCGO","name":"Charlotte G. O.","city":"Charlotte","state":"NC","zip":"28206","size":1,"jobs":["Package Handler","Driver Helper (Oct-Dec)","Package Delivery Driver","Feeder Driver","Automotive Mechanic","Facilities Mechanic","Part-time Operations Supervisor"],"lat":35.242577,"lon":-80.833141},{"id":"NCNGS","name":"Charlotte","city":"Charlotte","state":"NC","zip":"28269","size":1,"jobs":["Package Handler","UPS Freight Over the Road Driver","Part-time Operations Supervisor"],"lat":35.283726,"lon":-80.801391}],"Greensboro":[{"id":"NCGRE","name":"Greensboro Hub","city":"Greensboro","state":"NC","zip":"27406","size":0,"jobs":["Package Handler","Driver Helper (Oct-Dec)","Package Delivery Driver","Feeder Driver","Automotive Mechanic","Facilities Mechanic","Part-time Operations Supervisor"],"lat":36.025043,"lon":-79.77995},{"id":"NCGSB","name":"Greensboro","city":"Greensboro","state":"NC","zip":"27407","size":1,"jobs":["Package Handler","UPS Freight Over the Road Driver","Part-time Operations Supervisor"],"lat":35.995811,"lon":-79.863176}],"Raleigh":[{"id":"NCRAL","name":"Raleigh","city":"Raleigh","state":"NC","zip":"27604","size":0,"jobs":["Package Handler","Driver Helper (Oct-Dec)","Package Delivery Driver","Feeder Driver","Automotive Mechanic","Facilities Mechanic","Part-time Operations Supervisor"],"lat":35.836979,"lon":-78.603916}],"Asheville":[{"id":"NCASH","name":"Asheville","city":"Asheville","state":"NC","zip":"28803","size":1,"jobs":["Package Handler","Driver Helper (Oct-Dec)","Package Delivery Driver","Feeder Driver","Automotive Mechanic","Facilities Mechanic","Part-time Operations Supervisor"],"lat":35.546754,"lon":-82.519941}],"Chapel Hill":[{"id":"NCCHP","name":"Chapel Hill","city":"Chapel Hill","state":"NC","zip":"27516","size":1,"jobs":["Package Handler","Driver Helper (Oct-Dec)","Package Delivery Driver","Feeder Driver","Automotive Mechanic","Facilities Mechanic","Part-time Operations Supervisor"],"lat":35.9132,"lon":-79.055845}],"Durham":[{"id":"NCDUR","name":"Durham Center","city":"Durham","state":"NC","zip":"27704","size":1,"jobs":["Package Handler","Driver Helper (Oct-Dec)","Package Delivery Driver","Feeder Driver","Automotive Mechanic","Facilities Mechanic","Part-time Operations Supervisor"],"lat":36.006501,"lon":-78.874761}],"Hopemills":[{"id":"NCFAY","name":"Fayetteville Center","city":"Hopemills","state":"NC","zip":"28348","size":1,"jobs":["Package Handler","Driver Helper (Oct-Dec)","Package Delivery Driver","Feeder Driver","Automotive Mechanic","Facilities Mechanic","Part-time Operations Supervisor"],"lat":34.915562,"lon":-78.917509}],"Hickory":[{"id":"NCHIK","name":"Hickory Center","city":"Hickory","state":"NC","zip":"28602","size":1,"jobs":["Package Handler","Driver Helper (Oct-Dec)","Package Delivery Driver","Feeder Driver","Automotive Mechanic","Facilities Mechanic","Part-time Operations Supervisor"],"lat":35.711661,"lon":-81.286676}],"Kannapolis":[{"id":"NCKAN","name":"Kannapolis","city":"Kannapolis","state":"NC","zip":"28081","size":1,"jobs":["Package Handler","Driver Helper (Oct-Dec)","Package Delivery Driver","Feeder Driver","Automotive Mechanic","Facilities Mechanic","Part-time Operations Supervisor"],"lat":35.527806,"lon":-80.611381}],"Monroe":[{"id":"NCMON","name":"Monroe","city":"Monroe","state":"NC","zip":"28110","size":1,"jobs":["Package Handler","Driver Helper (Oct-Dec)","Package Delivery Driver","Feeder Driver","Automotive Mechanic","Facilities Mechanic","Part-time Operations Supervisor"],"lat":35.003627,"lon":-80.571026}],"Rocky Mount":[{"id":"NCROC","name":"Rocky Mount","city":"Rocky Mount","state":"NC","zip":"27804","size":1,"jobs":["Package Handler","Driver Helper (Oct-Dec)","Package Delivery Driver","Feeder Driver","Automotive Mechanic","Facilities Mechanic","Part-time Operations Supervisor"],"lat":36.007287,"lon":-77.788379}],"Shelby":[{"id":"NCSHE","name":"Shelby","city":"Shelby","state":"NC","zip":"28150","size":1,"jobs":["Package Handler","Driver Helper (Oct-Dec)","Package Delivery Driver","Feeder Driver","Automotive Mechanic","Facilities Mechanic","Part-time Operations Supervisor"],"lat":35.271936,"lon":-81.517836}],"Southern Pines":[{"id":"NCSOU","name":"Southern Pines Center","city":"Southern Pines","state":"NC","zip":"28387","size":1,"jobs":["Package Handler","Driver Helper (Oct-Dec)","Package Delivery Driver","Feeder Driver","Automotive Mechanic","Facilities Mechanic","Part-time Operations Supervisor"],"lat":35.194063,"lon":-79.374733}],"Statesville":[{"id":"NCSTA","name":"Statesville","city":"Statesville","state":"NC","zip":"28625","size":1,"jobs":["Package Handler","Driver Helper (Oct-Dec)","Package Delivery Driver","Feeder Driver","Automotive Mechanic","Facilities Mechanic","Part-time Operations Supervisor"],"lat":35.819723,"lon":-80.8711}],"Winston-Salem":[{"id":"NCWIN","name":"Winston Salem Building","city":"Winston-Salem","state":"NC","zip":"27105","size":1,"jobs":["Package Handler","Driver Helper (Oct-Dec)","Package Delivery Driver","Feeder Driver","Automotive Mechanic","Facilities Mechanic","Part-time Operations Supervisor"],"lat":36.156089,"lon":-80.241422}],"Wilmington":[{"id":"NCWLK","name":"Wilmington Center","city":"Wilmington","state":"NC","zip":"28405","size":1,"jobs":["Package Handler","Driver Helper (Oct-Dec)","Package Delivery Driver","Feeder Driver","Automotive Mechanic","Facilities Mechanic","Part-time Operations Supervisor"],"lat":34.256177,"lon":-77.919}]}