{"Omaha":[{"id":"NEOMA","name":"Omaha Hub","city":"Omaha","state":"NE","zip":"68107","size":0,"jobs":["Package Handler","Driver Helper (Oct-Dec)","Package Delivery Driver","Feeder Driver","Automotive Mechanic","Facilities Mechanic","Sales Representative","Warehouse Associate","UPS Freight Over the Road Driver","Part-time Operations Supervisor","Business Analyst"],"lat":41.202089,"lon":-95.951476},{"id":"NEAIR","name":"Omaha (Air Sort)","city":"Omaha","state":"NE","zip":"68110","size":1,"jobs":["Package Handler","Driver Helper (Oct-Dec)","Package Delivery Driver","Feeder Driver","Automotive Mechanic","Facilities Mechanic","Sales Representative","Warehouse Associate","UPS Freight Over the Road Driver","Part-time Operations Supervisor","Business Analyst"],"lat":41.30638,"lon":-95.905075}],"Lincoln":[{"id":"NELIN","name":"Lincoln","city":"Lincoln","state":"NE","zip":"68504","size":1,"jobs":["Package Handler","Driver Helper (Oct-Dec)","Package Delivery Driver","Feeder Driver","Automotive Mechanic","Facilities Mechanic","Sales Representative","Warehouse Associate","UPS Freight Over the Road Driver","Part-time Operations Supervisor","Business Analyst"],"lat":40.843966,"lon":-96.67281}]}