{"Dover":[{"id":"NHDOV","name":"Dover","city":"Dover","state":"NH","zip":"03820","size":1,"jobs":["Package Handler","Driver Helper (Oct-Dec)","Package Delivery Driver","Feeder Driver","Automotive Mechanic","Facilities Mechanic","Part-time Operations Supervisor"],"lat":43.187851,"lon":-70.906594}],"Laconia":[{"id":"NHLAC","name":"Laconia","city":"Laconia","state":"NH","zip":"03246","size":1,"jobs":["Package Handler","Driver Helper (Oct-Dec)","Package Delivery Driver","Feeder Driver","Automotive Mechanic","Facilities Mechanic","Part-time Operations Supervisor"],"lat":43.545409,"lon":-71.486072}],"Manchester":[{"id":"NHMAN","name":"Manchester","city":"Manchester","state":"NH","zip":"03103","size":1,"jobs":["Package Handler","Driver Helper (Oct-Dec)","Package Delivery Driver","Feeder Driver","Automotive Mechanic","Facilities Mechanic","Part-time Operations Supervisor"],"lat":42.943656,"lon":-71.453402},{"id":"NHMHT","name":"Manchester Airport","city":"Manchester","state":"NH","zip":"03103","size":1,"jobs":["Package Handler","Feeder Driver","Part-time Operations Supervisor"],"lat":42.922286,"lon":-71.439547}],"Nashua":[{"id":"NHNAS","name":"Nashua","city":"Nashua","state":"NH","zip":"03060","size":1,"jobs":["Package Handler","Driver Helper (Oct-Dec)","Package Delivery Driver","Feeder Driver","Automotive Mechanic","Facilities Mechanic","Part-time Operations Supervisor"],"lat":42.757702,"lon":-71.4915}]}