{"Cincinnati":[{"id":"OHCGE","name":"Cincinnati","city":"Cincinnati","state":"OH","zip":"45203","size":0,"jobs":["Package Handler","Driver Helper (Oct-Dec)","Package Delivery Driver","Feeder Driver","Automotive Mechanic","Facilities Mechanic","Sales Representative","Warehouse Associate","UPS Freight Over the Road Driver","Part-time Operations Supervisor","Business Analyst"],"lat":39.100305,"lon":-84.525305},{"id":"OHSHN","name":"Cincinnati","city":"Cincinnati","state":"OH","zip":"45241","size":1,"jobs":["Package Handler","Driver Helper (Oct-Dec)","Package Delivery Driver","Feeder Driver","Automotive Mechanic","Facilities Mechanic","Sales Representative","Warehouse Associate","UPS Freight Over the Road Driver","Part-time Operations Supervisor","Business Analyst"],"lat":39.285805,"lon":-84.419108}],"Obetz":[{"id":"OHCOL","name":"Obetz","city":"Obetz","state":"OH","zip":"43207","size":0,"jobs":["Package Handler","Driver Helper (Oct-Dec)","Package Delivery Driver","Feeder Driver","Automotive Mechanic","Facilities Mechanic","Sales Representative","Warehouse Associate","UPS Freight Over the Road Driver","Part-time Operations Supervisor","Business Analyst"],"lat":39.864261,"lon":-82.940632}],"Middleburg Heights":[{"id":"OHMID","name":"Middleburg Heights","city":"Middleburg Heights","state":"OH","zip":"44130","size":0,"jobs":["Package Handler","Driver Helper (Oct-Dec)","Package Delivery Driver","Feeder Driver","Automotive Mechanic","Facilities Mechanic","Sales Representative","Warehouse Associate","UPS Freight Over the Road Driver","Part-time Operations Supervisor","Business Analyst"],"lat":41.382789,"lon":-81.829932},{"id":"OHMHT","name":"Middleburg Heights, Oh","city":"Middleburg Heights","state":"OH","zip":"44130","size":1,"jobs":["Package Handler","Driver Helper (Oct-Dec)","Package Delivery Driver","Feeder Driver","Automotive Mechanic","Facilities Mechanic","Sales Representative","Warehouse Associate","UPS Freight Over the Road Driver","Part-time Operations Supervisor","Business Analyst"],"lat":41.378896,"lon":-81.825202}],"Sharonville":[{"id":"OHSHA","name":"Sharonville","city":"Sharonville","state":"OH","zip":"45241","size":0,"jobs":["Package Handler","Driver Helper (Oct-Dec)","Package Delivery Driver","Feeder Driver","Automotive Mechanic","Facilities Mechanic","Sales Representative","Warehouse Associate","UPS Freight Over the Road Driver","Part-time Operations Supervisor","Business Analyst"],"lat":39.276718,"lon":-84.437877}],"Maumee":[{"id":"OHTOL","name":"Toledo","city":"Maumee","state":"OH","zip":"43537","size":0,"jobs":["Package Handler","Driver Helper (Oct-Dec)","Package Delivery Driver","Feeder Driver","Automotive Mechanic","Facilities Mechanic","Sales Representative","Warehouse Associate","UPS Freight Over the Road Driver","Part-time Operations Supervisor","Business Analyst"],"lat":41.588795,"lon":-83.671772}],"Columbus":[{"id":"OHTRA","name":"Columbus","city":"Columbus","state":"OH","zip":"43228","size":0,"jobs":["Package Handler","Driver Helper (Oct-Dec)","Package Delivery Driver","Feeder Driver","Automotive Mechanic","Facilities Mechanic","Sales Representative","Warehouse Associate","UPS Freight Over the Road Driver","Part-time Operations Supervisor","Business Analyst"],"lat":39.982288,"lon":-83.1356},{"id":"OHCLS","name":"Columbus","city":"Columbus","state":"OH","zip":"43232","size":1,"jobs":["Package Handler","Driver Helper (Oct-Dec)","Package Delivery Driver","Feeder Driver","Automotive Mechanic","Facilities Mechanic","Sales Representative","Warehouse Associate","UPS Freight Over the Road Driver","Part-time Operations Supervisor","Business Analyst"],"lat":39.920041,"lon":-82.914298}],"Akron":[{"id":"OHAKR","name":"Akron","city":"Akron","state":"OH","zip":"44310","size":1,"jobs":["Package Handler","Driver Helper (Oct-Dec)","Package Delivery Driver","Feeder Driver","Automotive Mechanic","Facilities Mechanic","Sales Representative","Warehouse Associate","UPS Freight Over the Road Driver","Part-time Operations Supervisor","Business Analyst"],"lat":41.10879,"lon":-81.479159}],"Canton":[{"id":"OHCAN","name":"Canton","city":"Canton","state":"OH","zip":"44706","size":1,"jobs":["Package Handler","Driver Helper (Oct-Dec)","Package Delivery Driver","Feeder Driver","Automotive Mechanic","Facilities Mechanic","Sales Representative","Warehouse Associate","UPS Freight Over the Road Driver","Part-time Operations Supervisor","Business Analyst"],"lat":40.76681,"lon":-81.444468}],"Cleveland":[{"id":"OHCLE","name":"Cleveland E68 Main Building","city":"Cleveland","state":"OH","zip":"44105","size":1,"jobs":["Package Handler","Driver Helper (Oct-Dec)","Package Delivery Driver","Feeder Driver","Automotive Mechanic","Facilities Mechanic","Sales Representative","Warehouse Associate","UPS Freight Over the Road Driver","Part-time Operations Supervisor","Business Analyst"],"lat":41.442231,"lon":-81.642225}],"Dayton":[{"id":"OHDAY","name":"Dayton","city":"Dayton","state":"OH","zip":"45404","size":1,"jobs":["Package Handler","Driver Helper (Oct-Dec)","Package Delivery Driver","Feeder Driver","Automotive Mechanic","Facilities Mechanic","Sales Representative","Warehouse Associate","UPS Freight Over the Road Driver","Part-time Operations Supervisor","Business Analyst"],"lat":39.795634,"lon":-84.150204}],"Highland Heights":[{"id":"OHHHT","name":"Highland Heights Hub","city":"Highland Heights","state":"OH","zip":"44143","size":1,"jobs":["Package Handler","Driver Helper (Oct-Dec)","Package Delivery Driver","Feeder Driver","Automotive Mechanic","Facilities Mechanic","Sales Representative","Warehouse Associate","UPS Freight Over the Road Driver","Part-time Operations Supervisor","Business Analyst"],"lat":41.564414,"lon":-81.475406}],"Lima":[{"id":"OHLIM","name":"Lima","city":"Lima","state":"OH","zip":"45804","size":1,"jobs":["Package Handler","Driver Helper (Oct-Dec)","Package Delivery Driver","Feeder Driver","Automotive Mechanic","Facilities Mechanic","Sales Representative","Warehouse Associate","UPS Freight Over the Road Driver","Part-time Operations Supervisor","Business Analyst"],"lat":40.728522,"lon":-84.081707}],"Mansfield":[{"id":"OHMAN","name":"Mansfield","city":"Mansfield","state":"OH","zip":"44906","size":1,"jobs":["Package Handler","Driver Helper (Oct-Dec)","Package Delivery Driver","Feeder Driver","Automotive Mechanic","Facilities Mechanic","Sales Representative","Warehouse Associate","UPS Freight Over the Road Driver","Part-time Operations Supervisor","Business Analyst"],"lat":40.775824,"lon":-82.54638}],"Newark":[{"id":"OHNEW","name":"Newark","city":"Newark","state":"OH","zip":"43055","size":1,"jobs":["Package Handler","Driver Helper (Oct-Dec)","Package Delivery Driver","Feeder Driver","Automotive Mechanic","Facilities Mechanic","Sales Representative","Warehouse Associate","UPS Freight Over the Road Driver","Part-time Operations Supervisor","Business Analyst"],"lat":40.060555,"lon":-82.361022}],"Piqua":[{"id":"OHPIQ","name":"Piqua","city":"Piqua","state":"OH","zip":"45356","size":1,"jobs":["Package Handler","Driver Helper (Oct-Dec)","Package Delivery Driver","Feeder Driver","Automotive Mechanic","Facilities Mechanic","Sales Representative","Warehouse Associate","UPS Freight Over the Road Driver","Part-time Operations Supervisor","Business Analyst"],"lat":40.156817,"lon":-84.228764}],"Richfield":[{"id":"OHRIC","name":"Richfield","city":"Richfield","state":"OH","zip":"44286","size":1,"jobs":["Package Handler","Driver Helper (Oct-Dec)","Package Delivery Driver","Feeder Driver","Automotive Mechanic","Facilities Mechanic","Sales Representative","Warehouse Associate","UPS Freight Over the Road Driver","Part-time Operations Supervisor","Business Analyst"],"lat":41.230805,"lon":-81.63656}],"Springfield":[{"id":"OHSPF","name":"Springfield Center","city":"Springfield","state":"OH","zip":"45506","size":1,"jobs":["Package Handler","Driver Helper (Oct-Dec)","Package Delivery Driver","Feeder Driver","Automotive Mechanic","Facilities Mechanic","Sales Representative","Warehouse Associate","UPS Freight Over the Road Driver","Part-time Operations Supervisor","Business Analyst"],"lat":39.897512,"lon":-83.821521}],"Girard":[{"id":"OHTRU","name":"Trumbull","city":"Girard","state":"OH","zip":"44420","size":1,"jobs":["Package Handler","Driver Helper (Oct-Dec)","Package Delivery Driver","Feeder Driver","Automotive Mechanic","Facilities Mechanic","Sales Representative","Warehouse Associate","UPS Freight Over the Road Driver","Part-time Operations Supervisor","Business Analyst"],"lat":41.141745,"lon":-80.675019}],"Wadsworth":[{"id":"OHWAD","name":"Wadsworth","city":"Wadsworth","state":"OH","zip":"44281","size":1,"jobs":["Package Handler","Driver Helper (Oct-Dec)","Package Delivery Driver","Feeder Driver","Automotive Mechanic","Facilities Mechanic","Sales Representative","Warehouse Associate","UPS Freight Over the Road Driver","Part-time Operations Supervisor","Business Analyst"],"lat":41.02561,"lon":-81.729852}],"West Carrollton":[{"id":"OHWES","name":"West Carrollton","city":"West Carrollton","state":"OH","zip":"45449","size":1,"jobs":["Package Handler","Driver Helper (Oct-Dec)","Package Delivery Driver","Feeder Driver","Automotive Mechanic","Facilities Mechanic","Sales Representative","Warehouse Associate","UPS Freight Over the Road Driver","Part-time Operations Supervisor","Business Analyst"],"lat":39.673058,"lon":-84.240792}]}