{"Portland":[{"id":"ORPOR","name":"Portland Hub","city":"Portland","state":"OR","zip":"97217","size":0,"jobs":["Package Handler","Driver Helper (Oct-Dec)","Package Delivery Driver","Feeder Driver","Automotive Mechanic","Facilities Mechanic","Part-time Operations Supervisor"],"lat":45.569924,"lon":-122.716644},{"id":"ORAIR","name":"Pdx Airport","city":"Portland","state":"OR","zip":"97218","size":1,"jobs":["Package Handler","Feeder Driver","Part-time Operations Supervisor"],"lat":45.584102,"lon":-122.606596},{"id":"ORORT","name":"Portland","city":"Portland","state":"OR","zip":"97211","size":1,"jobs":["Package Handler","UPS Freight Over the Road Driver","Part-time Operations Supervisor"],"lat":45.580241,"lon":-122.653812},{"id":"ORPON","name":"Swan Island Center","city":"Portland","state":"OR","zip":"97217","size":1,"jobs":["Package Handler","Driver Helper (Oct-Dec)","Package Delivery Driver","Feeder Driver","Automotive Mechanic","Facilities Mechanic","Part-time Operations Supervisor"],"lat":45.563666,"lon":-122.703933}],"Tualatin":[{"id":"ORTUA","name":"Tualatin","city":"Tualatin","state":"OR","zip":"97062","size":0,"jobs":["Package Handler","Driver Helper (Oct-Dec)","Package Delivery Driver","Feeder Driver","Automotive Mechanic","Facilities Mechanic","Part-time Operations Supervisor"],"lat":45.378144,"lon":-122.787902}],"Bend":[{"id":"ORBEN","name":"Bend","city":"Bend","state":"OR","zip":"97701","size":1,"jobs":["Package Handler","Driver Helper (Oct-Dec)","Package Delivery Driver","Feeder Driver","Automotive Mechanic","Facilities Mechanic","Part-time Operations Supervisor"],"lat":44.074244,"lon":-121.303356}],"Eugene":[{"id":"OREUG","name":"Eugene","city":"Eugene","state":"OR","zip":"97403","size":1,"jobs":["Package Handler","Driver Helper (Oct-Dec)","Package Delivery Driver","Feeder Driver","Automotive Mechanic","Facilities Mechanic","Part-time Operations Supervisor"],"lat":44.039667,"lon":-123.03231}],"Hermiston":[{"id":"ORHRM","name":"Hermiston Center","city":"Hermiston","state":"OR","zip":"97838","size":1,"jobs":["Package Handler","Driver Helper (Oct-Dec)","Package Delivery Driver","Feeder Driver","Automotive Mechanic","Facilities Mechanic","Part-time Operations Supervisor"],"lat":45.799527,"lon":-119.37373}],"Medford":[{"id":"ORMED","name":"Medford","city":"Medford","state":"OR","zip":"97501","size":1,"jobs":["Package Handler","Driver Helper (Oct-Dec)","Package Delivery Driver","Feeder Driver","Automotive Mechanic","Facilities Mechanic","Part-time Operations Supervisor"],"lat":42.347649,"lon":-122.902089}],"Roseburg":[{"id":"ORROS","name":"Roseburg","city":"Roseburg","state":"OR","zip":"97470","size":1,"jobs":["Package Handler","Driver Helper (Oct-Dec)","Package Delivery Driver","Feeder Driver","Automotive Mechanic","Facilities Mechanic","Part-time Operations Supervisor"],"lat":43.151786,"lon":-123.372775}],"Salem":[{"id":"ORSAL","name":"Salem","city":"Salem","state":"OR","zip":"97303","size":1,"jobs":["Package Handler","Driver Helper (Oct-Dec)","Package Delivery Driver","Feeder Driver","Automotive Mechanic","Facilities Mechanic","Part-time Operations Supervisor"],"lat":44.973073,"lon":-123.01136}]}