{"Pittsburgh":[{"id":"PABEA","name":"North Shore - Pittsburgh","city":"Pittsburgh","state":"PA","zip":"15233","size":0,"jobs":["Package Handler","Driver Helper (Oct-Dec)","Package Delivery Driver","Feeder Driver","Automotive Mechanic","Facilities Mechanic","Sales Representative","Warehouse Associate","UPS Freight Over the Road Driver","Part-time Operations Supervisor","Business Analyst"],"lat":40.458142,"lon":-80.031457}],"Bethlehem":[{"id":"PABTN","name":"Allentown","city":"Bethlehem","state":"PA","zip":"18020","size":0,"jobs":["Package Handler","Driver Helper (Oct-Dec)","Package Delivery Driver","Feeder Driver","Automotive Mechanic","Facilities Mechanic","Sales Representative","Warehouse Associate","UPS Freight Over the Road Driver","Part-time Operations Supervisor","Business Analyst"],"lat":40.675161,"lon":-75.368157}],"Harrisburg":[{"id":"PAHAR","name":"Harrisburg","city":"Harrisburg","state":"PA","zip":"17104","size":0,"jobs":["Package Handler","Driver Helper (Oct-Dec)","Package Delivery Driver","Feeder Driver","Automotive Mechanic","Facilities Mechanic","Sales Representative","Warehouse Associate","UPS Freight Over the Road Driver","Part-time Operations Supervisor","Business Analyst"],"lat":40.243224,"lon":-76.846143},{"id":"PAMBG","name":"Harrisburg","city":"Harrisburg","state":"PA","zip":"17050","size":0,"jobs":["Package Handler","Driver Helper (Oct-Dec)","Package Delivery Driver","Feeder Driver","Automotive Mechanic","Facilities Mechanic","Sales Representative","Warehouse Associate","UPS Freight Over the Road Driver","Part-time Operations Supervisor","Business Analyst"],"lat":40.237553,"lon":-76.972417}],"Lancaster":[{"id":"PALAN","name":"Lancaster","city":"Lancaster","state":"PA","zip":"17520","size":0,"jobs":["Package Handler","Driver Helper (Oct-Dec)","Package Delivery Driver","Feeder Driver","Automotive Mechanic","Facilities Mechanic","Sales Representative","Warehouse Associate","UPS Freight Over the Road Driver","Part-time Operations Supervisor","Business Analyst"],"lat":40.089899,"lon":-76.352483}],"New Stanton":[{"id":"PANST","name":"New Stanton","city":"New Stanton","state":"PA","zip":"15672","size":0,"jobs":["Package Handler","Driver Helper (Oct-Dec)","Package Delivery Driver","Feeder Driver","Automotive Mechanic","Facilities Mechanic","Sales Representative","Warehouse Associate","UPS Freight Over the Road Driver","Part-time Operations Supervisor","Business Analyst"],"lat":40.224496,"lon":-79.616744}],"Philadelphia":[{"id":"PAPHA","name":"Philadelphia Air Hub","city":"Philadelphia","state":"PA","zip":"19153","size":0,"jobs":["Package Handler","Driver Helper (Oct-Dec)","Package Delivery Driver","Feeder Driver","Automotive Mechanic","Facilities Mechanic","Sales Representative","Warehouse Associate","UPS Freight Over the Road Driver","Part-time Operations Supervisor","Business Analyst"],"lat":39.859907,"lon":-75.252985},{"id":"PAPHI","name":"Philadelphia","city":"Philadelphia","state":"PA","zip":"19148","size":0,"jobs":["Package Handler","Driver Helper (Oct-Dec)","Package Delivery Driver","Feeder Driver","Automotive Mechanic","Facilities Mechanic","Sales Representative","Warehouse Associate","UPS Freight Over the Road Driver","Part-time Operations Supervisor","Business Analyst"],"lat":39.913858,"lon":-75.144448},{"id":"PABNS","name":"Philadelphia","city":"Philadelphia","state":"PA","zip":"19020","size":1,"jobs":["Package Handler","Driver Helper (Oct-Dec)","Package Delivery Driver","Feeder Driver","Automotive Mechanic","Facilities Mechanic","Sales Representative","Warehouse Associate","UPS Freight Over the Road Driver","Part-time Operations Supervisor","Business Analyst"],"lat":40.072968,"lon":-74.943089}],"West Chester":[{"id":"PAWES","name":"West Chester","city":"West Chester","state":"PA","zip":"19380","size":0,"jobs":["Package Handler","Driver Helper (Oct-Dec)","Package Delivery Driver","Feeder Driver","Automotive Mechanic","Facilities Mechanic","Sales Representative","Warehouse Associate","UPS Freight Over the Road Driver","Part-time Operations Supervisor","Business Analyst"],"lat":39.986879,"lon":-75.580854}],"Horshem":[{"id":"PAWLG","name":"Willow Grove","city":"Horshem","state":"PA","zip":"19044","size":0,"jobs":["Package Handler","Driver Helper (Oct-Dec)","Package Delivery Driver","Feeder Driver","Automotive Mechanic","Facilities Mechanic","Sales Representative","Warehouse Associate","UPS Freight Over the Road Driver","Part-time Operations Supervisor","Business Analyst"],"lat":40.164099,"lon":-75.144058}],"Altoona":[{"id":"PAALT","name":"Altoona","city":"Altoona","state":"PA","zip":"16635","size":1,"jobs":["Package Handler","Driver Helper (Oct-Dec)","Package Delivery Driver","Feeder Driver","Automotive Mechanic","Facilities Mechanic","Sales Representative","Warehouse Associate","UPS Freight Over the Road Driver","Part-time Operations Supervisor","Business Analyst"],"lat":40.451054,"lon":-78.431523}],"Chambersburg":[{"id":"PACHA","name":"Chambersburg","city":"Chambersburg","state":"PA","zip":"17201","size":1,"jobs":["Package Handler","Driver Helper (Oct-Dec)","Package Delivery Driver","Feeder Driver","Automotive Mechanic","Facilities Mechanic","Sales Representative","Warehouse Associate","UPS Freight Over the Road Driver","Part-time Operations Supervisor","Business Analyst"],"lat":39.924097,"lon":-77.668581}],"Erie":[{"id":"PAERI","name":"Erie","city":"Erie","state":"PA","zip":"16506","size":1,"jobs":["Package Handler","Driver Helper (Oct-Dec)","Package Delivery Driver","Feeder Driver","Automotive Mechanic","Facilities Mechanic","Sales Representative","Warehouse Associate","UPS Freight Over the Road Driver","Part-time Operations Supervisor","Business Analyst"],"lat":42.072899,"lon":-80.112211}],"Johnstown":[{"id":"PAJOH","name":"Johnstown","city":"Johnstown","state":"PA","zip":"15904","size":1,"jobs":["Package Handler","Driver Helper (Oct-Dec)","Package Delivery Driver","Feeder Driver","Automotive Mechanic","Facilities Mechanic","Sales Representative","Warehouse Associate","UPS Freight Over the Road Driver","Part-time Operations Supervisor","Business Analyst"],"lat":40.282592,"lon":-78.84339}],"Middletown":[{"id":"PAMDT","name":"Harrisburg Airport","city":"Middletown","state":"PA","zip":"17057","size":1,"jobs":["Package Handler","Driver Helper (Oct-Dec)","Package Delivery Driver","Feeder Driver","Automotive Mechanic","Facilities Mechanic","Sales Representative","Warehouse Associate","UPS Freight Over the Road Driver","Part-time Operations Supervisor","Business Analyst"],"lat":40.19614,"lon":-76.74466}],"Pittsburg":[{"id":"PAMDW","name":"Pittsburg","city":"Pittsburg","state":"PA","zip":"15347","size":1,"jobs":["Package Handler","Driver Helper (Oct-Dec)","Package Delivery Driver","Feeder Driver","Automotive Mechanic","Facilities Mechanic","Sales Representative","Warehouse Associate","UPS Freight Over the Road Driver","Part-time Operations Supervisor","Business Analyst"],"lat":40.486478,"lon":-79.786527}],"Reading":[{"id":"PAREA","name":"Reading","city":"Reading","state":"PA","zip":"19605","size":1,"jobs":["Package Handler","Driver Helper (Oct-Dec)","Package Delivery Driver","Feeder Driver","Automotive Mechanic","Facilities Mechanic","Sales Representative","Warehouse Associate","UPS Freight Over the Road Driver","Part-time Operations Supervisor","Business Analyst"],"lat":40.389689,"lon":-75.935022}],"Throop\/Scranton":[{"id":"PASCN","name":"Scranton","city":"Throop\/Scranton","state":"PA","zip":"18512","size":1,"jobs":["Package Handler","Driver Helper (Oct-Dec)","Package Delivery Driver","Feeder Driver","Automotive Mechanic","Facilities Mechanic","Sales Representative","Warehouse Associate","UPS Freight Over the Road Driver","Part-time Operations Supervisor","Business Analyst"],"lat":41.434978,"lon":-75.611867}],"Taylor":[{"id":"PASCR","name":"Scranton","city":"Taylor","state":"PA","zip":"18517","size":1,"jobs":["Package Handler","Driver Helper (Oct-Dec)","Package Delivery Driver","Feeder Driver","Automotive Mechanic","Facilities Mechanic","Sales Representative","Warehouse Associate","UPS Freight Over the Road Driver","Part-time Operations Supervisor","Business Analyst"],"lat":41.401917,"lon":-75.703949}],"State College":[{"id":"PASTA","name":"State College","city":"State College","state":"PA","zip":"16801","size":1,"jobs":["Package Handler","Driver Helper (Oct-Dec)","Package Delivery Driver","Feeder Driver","Automotive Mechanic","Facilities Mechanic","Sales Representative","Warehouse Associate","UPS Freight Over the Road Driver","Part-time Operations Supervisor","Business Analyst"],"lat":40.827905,"lon":-77.800116}],"Stroudsburg":[{"id":"PASTR","name":"Stroudsburg","city":"Stroudsburg","state":"PA","zip":"18360","size":1,"jobs":["Package Handler","Driver Helper (Oct-Dec)","Package Delivery Driver","Feeder Driver","Automotive Mechanic","Facilities Mechanic","Sales Representative","Warehouse Associate","UPS Freight Over the Road Driver","Part-time Operations Supervisor","Business Analyst"],"lat":40.976671,"lon":-75.241043}],"Northumberland":[{"id":"PASUN","name":"Sunbury","city":"Northumberland","state":"PA","zip":"17857","size":1,"jobs":["Package Handler","Driver Helper (Oct-Dec)","Package Delivery Driver","Feeder Driver","Automotive Mechanic","Facilities Mechanic","Sales Representative","Warehouse Associate","UPS Freight Over the Road Driver","Part-time Operations Supervisor","Business Analyst"],"lat":40.926539,"lon":-76.768278}],"Thornburg":[{"id":"PATHO","name":"Thornburg","city":"Thornburg","state":"PA","zip":"15205","size":1,"jobs":["Package Handler","Driver Helper (Oct-Dec)","Package Delivery Driver","Feeder Driver","Automotive Mechanic","Facilities Mechanic","Sales Representative","Warehouse Associate","UPS Freight Over the Road Driver","Part-time Operations Supervisor","Business Analyst"],"lat":40.448135,"lon":-80.087276}],"Washington":[{"id":"PAWAS","name":"Washington","city":"Washington","state":"PA","zip":"15301","size":1,"jobs":["Package Handler","Driver Helper (Oct-Dec)","Package Delivery Driver","Feeder Driver","Automotive Mechanic","Facilities Mechanic","Sales Representative","Warehouse Associate","UPS Freight Over the Road Driver","Part-time Operations Supervisor","Business Analyst"],"lat":40.204272,"lon":-80.260671}],"Dupont":[{"id":"PAWLB","name":"Wilkes-barre","city":"Dupont","state":"PA","zip":"18640","size":1,"jobs":["Package Handler","Driver Helper (Oct-Dec)","Package Delivery Driver","Feeder Driver","Automotive Mechanic","Facilities Mechanic","Sales Representative","Warehouse Associate","UPS Freight Over the Road Driver","Part-time Operations Supervisor","Business Analyst"],"lat":41.310695,"lon":-75.749685}],"Williamsport":[{"id":"PAWLL","name":"Williamsport","city":"Williamsport","state":"PA","zip":"17701","size":1,"jobs":["Package Handler","Driver Helper (Oct-Dec)","Package Delivery Driver","Feeder Driver","Automotive Mechanic","Facilities Mechanic","Sales Representative","Warehouse Associate","UPS Freight Over the Road Driver","Part-time Operations Supervisor","Business Analyst"],"lat":41.23371,"lon":-77.074361}],"York":[{"id":"PAYOR","name":"York","city":"York","state":"PA","zip":"17406","size":1,"jobs":["Package Handler","Driver Helper (Oct-Dec)","Package Delivery Driver","Feeder Driver","Automotive Mechanic","Facilities Mechanic","Sales Representative","Warehouse Associate","UPS Freight Over the Road Driver","Part-time Operations Supervisor","Business Analyst"],"lat":40.047758,"lon":-76.745558}],"Zelienople":[{"id":"PAZEL","name":"Zelienople Facility","city":"Zelienople","state":"PA","zip":"16063","size":1,"jobs":["Package Handler","Driver Helper (Oct-Dec)","Package Delivery Driver","Feeder Driver","Automotive Mechanic","Facilities Mechanic","Sales Representative","Warehouse Associate","UPS Freight Over the Road Driver","Part-time Operations Supervisor","Business Analyst"],"lat":40.75776,"lon":-80.122854}]}