{"West Columbia":[{"id":"SCCOL","name":"Columbia Hub","city":"West Columbia","state":"SC","zip":"29169","size":0,"jobs":["Package Handler","Driver Helper (Oct-Dec)","Package Delivery Driver","Feeder Driver","Automotive Mechanic","Facilities Mechanic","Part-time Operations Supervisor"],"lat":33.934075,"lon":-81.09951},{"id":"SCCAE","name":"West Columbia Air Ramp","city":"West Columbia","state":"SC","zip":"29170","size":1,"jobs":["Package Handler","Driver Helper (Oct-Dec)","Package Delivery Driver","Feeder Driver","Automotive Mechanic","Facilities Mechanic","Part-time Operations Supervisor"],"lat":33.934183,"lon":-81.109248},{"id":"SCCAH","name":"Columbia Air Hub","city":"West Columbia","state":"SC","zip":"29172","size":1,"jobs":["Package Handler","Feeder Driver","Part-time Operations Supervisor"],"lat":33.931815,"lon":-81.109327}],"Spartanburg":[{"id":"SCSPA","name":"Spartanburg Center","city":"Spartanburg","state":"SC","zip":"29303","size":0,"jobs":["Package Handler","Driver Helper (Oct-Dec)","Package Delivery Driver","Feeder Driver","Automotive Mechanic","Facilities Mechanic","Part-time Operations Supervisor"],"lat":34.975486,"lon":-81.96792}],"Aiken":[{"id":"SCAKN","name":"Centennial Building 1","city":"Aiken","state":"SC","zip":"29803","size":1,"jobs":["General Management Staff","Administrative Support Staff"],"lat":33.524879,"lon":-81.710686}],"Anderson":[{"id":"SCAND","name":"Anderson Center","city":"Anderson","state":"SC","zip":"29625","size":1,"jobs":["Package Handler","Driver Helper (Oct-Dec)","Package Delivery Driver","Feeder Driver","Automotive Mechanic","Facilities Mechanic","Part-time Operations Supervisor"],"lat":34.53135,"lon":-82.685819}],"Charleston":[{"id":"SCCHA","name":"Charleston Center","city":"Charleston","state":"SC","zip":"29405","size":1,"jobs":["Package Handler","Driver Helper (Oct-Dec)","Package Delivery Driver","Feeder Driver","Automotive Mechanic","Facilities Mechanic","Part-time Operations Supervisor"],"lat":32.868095,"lon":-79.99717}],"Greenville":[{"id":"SCECD","name":"US Inside Sales - Greenville","city":"Greenville","state":"SC","zip":"29615","size":1,"jobs":["Sales Representative"],"lat":34.836408,"lon":-82.301595},{"id":"SCGLL","name":"Greenville","city":"Greenville","state":"SC","zip":"29615","size":1,"jobs":["Package Handler","Driver Helper (Oct-Dec)","Package Delivery Driver","Feeder Driver","Automotive Mechanic","Facilities Mechanic","Part-time Operations Supervisor"],"lat":34.859614,"lon":-82.252912},{"id":"SCGRV","name":"Greenville","city":"Greenville","state":"SC","zip":"29607","size":1,"jobs":["Package Handler","Driver Helper (Oct-Dec)","Package Delivery Driver","Feeder Driver","Automotive Mechanic","Facilities Mechanic","Part-time Operations Supervisor"],"lat":34.785507,"lon":-82.351816}],"Florence":[{"id":"SCFLO","name":"Florence Center","city":"Florence","state":"SC","zip":"29501","size":1,"jobs":["Package Handler","Driver Helper (Oct-Dec)","Package Delivery Driver","Feeder Driver","Automotive Mechanic","Facilities Mechanic","Part-time Operations Supervisor"],"lat":34.249953,"lon":-79.819191}],"Gaffney":[{"id":"SCGNY","name":"Gaffney","city":"Gaffney","state":"SC","zip":"29341","size":1,"jobs":["Package Handler","UPS Freight Over the Road Driver","Part-time Operations Supervisor"],"lat":35.103745,"lon":-81.629605}],"Myrtle Beach":[{"id":"SCMYR","name":"Myrtle Beach Center","city":"Myrtle Beach","state":"SC","zip":"29577","size":1,"jobs":["Package Handler","Driver Helper (Oct-Dec)","Package Delivery Driver","Feeder Driver","Automotive Mechanic","Facilities Mechanic","Part-time Operations Supervisor"],"lat":33.719196,"lon":-78.933048}],"Rockhill":[{"id":"SCROC","name":"Rock Hill Center","city":"Rockhill","state":"SC","zip":"29731","size":1,"jobs":["Package Handler","Driver Helper (Oct-Dec)","Package Delivery Driver","Feeder Driver","Automotive Mechanic","Facilities Mechanic","Part-time Operations Supervisor"],"lat":34.955676,"lon":-80.993388}],"Summerville":[{"id":"SCSMV","name":"Summerville Center","city":"Summerville","state":"SC","zip":"29483","size":1,"jobs":["Package Handler","Driver Helper (Oct-Dec)","Package Delivery Driver","Feeder Driver","Automotive Mechanic","Facilities Mechanic","Part-time Operations Supervisor"],"lat":33.026904,"lon":-80.134804}]}