{"Knoxville":[{"id":"TNKNO","name":"Knoxville","city":"Knoxville","state":"TN","zip":"37912","size":0,"jobs":["Package Handler","Driver Helper (Oct-Dec)","Package Delivery Driver","Feeder Driver","Automotive Mechanic","Facilities Mechanic","Sales Representative","Warehouse Associate","UPS Freight Over the Road Driver","Part-time Operations Supervisor","Business Analyst"],"lat":36.021459,"lon":-84.000568}],"Nashville":[{"id":"TNMAS","name":"Nashville Hub","city":"Nashville","state":"TN","zip":"37210","size":0,"jobs":["Package Handler","Driver Helper (Oct-Dec)","Package Delivery Driver","Feeder Driver","Automotive Mechanic","Facilities Mechanic","Sales Representative","Warehouse Associate","UPS Freight Over the Road Driver","Part-time Operations Supervisor","Business Analyst"],"lat":36.152034,"lon":-86.707215},{"id":"TNWHI","name":"Whites Creek Hub","city":"Nashville","state":"TN","zip":"37207","size":0,"jobs":["Package Handler","Driver Helper (Oct-Dec)","Package Delivery Driver","Feeder Driver","Automotive Mechanic","Facilities Mechanic","Sales Representative","Warehouse Associate","UPS Freight Over the Road Driver","Part-time Operations Supervisor","Business Analyst"],"lat":36.231339,"lon":-86.811857},{"id":"TNLVE","name":"Nashville","city":"Nashville","state":"TN","zip":"37086","size":1,"jobs":["Package Handler","Driver Helper (Oct-Dec)","Package Delivery Driver","Feeder Driver","Automotive Mechanic","Facilities Mechanic","Sales Representative","Warehouse Associate","UPS Freight Over the Road Driver","Part-time Operations Supervisor","Business Analyst"],"lat":36.02584,"lon":-86.611047}],"Memphis":[{"id":"TNMEM","name":"Memphis Hub","city":"Memphis","state":"TN","zip":"38116","size":0,"jobs":["Package Handler","Driver Helper (Oct-Dec)","Package Delivery Driver","Feeder Driver","Automotive Mechanic","Facilities Mechanic","Sales Representative","Warehouse Associate","UPS Freight Over the Road Driver","Part-time Operations Supervisor","Business Analyst"],"lat":35.067716,"lon":-90.004995},{"id":"TNOAK","name":"Oakhaven Package Distribution","city":"Memphis","state":"TN","zip":"38118","size":0,"jobs":["Package Handler","Driver Helper (Oct-Dec)","Package Delivery Driver","Feeder Driver","Automotive Mechanic","Facilities Mechanic","Sales Representative","Warehouse Associate","UPS Freight Over the Road Driver","Part-time Operations Supervisor","Business Analyst"],"lat":35.027785,"lon":-89.934666},{"id":"TNEBR","name":"Memphis","city":"Memphis","state":"TN","zip":"38116","size":1,"jobs":["Package Handler","Driver Helper (Oct-Dec)","Package Delivery Driver","Feeder Driver","Automotive Mechanic","Facilities Mechanic","Sales Representative","Warehouse Associate","UPS Freight Over the Road Driver","Part-time Operations Supervisor","Business Analyst"],"lat":35.058413,"lon":-90.003358}],"Bartlett":[{"id":"TNBAR","name":"Bartlett","city":"Bartlett","state":"TN","zip":"38133","size":1,"jobs":["Package Handler","Driver Helper (Oct-Dec)","Package Delivery Driver","Feeder Driver","Automotive Mechanic","Facilities Mechanic","Sales Representative","Warehouse Associate","UPS Freight Over the Road Driver","Part-time Operations Supervisor","Business Analyst"],"lat":35.21075,"lon":-89.78002}],"Chattanooga":[{"id":"TNCHA","name":"Chattanooga","city":"Chattanooga","state":"TN","zip":"37416","size":1,"jobs":["Package Handler","Driver Helper (Oct-Dec)","Package Delivery Driver","Feeder Driver","Automotive Mechanic","Facilities Mechanic","Sales Representative","Warehouse Associate","UPS Freight Over the Road Driver","Part-time Operations Supervisor","Business Analyst"],"lat":35.071522,"lon":-85.186804}],"Franklin":[{"id":"TNFRA","name":"Franklin","city":"Franklin","state":"TN","zip":"37064","size":1,"jobs":["Package Handler","Driver Helper (Oct-Dec)","Package Delivery Driver","Feeder Driver","Automotive Mechanic","Facilities Mechanic","Sales Representative","Warehouse Associate","UPS Freight Over the Road Driver","Part-time Operations Supervisor","Business Analyst"],"lat":35.959685,"lon":-86.824565}],"Johnson City":[{"id":"TNJOH","name":"Johnson City Center","city":"Johnson City","state":"TN","zip":"37601","size":1,"jobs":["Package Handler","Driver Helper (Oct-Dec)","Package Delivery Driver","Feeder Driver","Automotive Mechanic","Facilities Mechanic","Sales Representative","Warehouse Associate","UPS Freight Over the Road Driver","Part-time Operations Supervisor","Business Analyst"],"lat":36.351475,"lon":-82.364704}],"Murfreesboro":[{"id":"TNMUR","name":"Murfreesboro","city":"Murfreesboro","state":"TN","zip":"37130","size":1,"jobs":["Package Handler","Driver Helper (Oct-Dec)","Package Delivery Driver","Feeder Driver","Automotive Mechanic","Facilities Mechanic","Sales Representative","Warehouse Associate","UPS Freight Over the Road Driver","Part-time Operations Supervisor","Business Analyst"],"lat":35.838154,"lon":-86.405013}]}