{"San Antonio":[{"id":"TXANT","name":"San Antonio Hub","city":"San Antonio","state":"TX","zip":"78244","size":0,"jobs":["Package Handler","Driver Helper (Oct-Dec)","Package Delivery Driver","Feeder Driver","Automotive Mechanic","Facilities Mechanic","Sales Representative","Warehouse Associate","UPS Freight Over the Road Driver","Part-time Operations Supervisor","Business Analyst"],"lat":29.485273,"lon":-98.363603},{"id":"TXSUM","name":"Centex International Phone Cen","city":"San Antonio","state":"TX","zip":"78228","size":1,"jobs":["Package Handler","Driver Helper (Oct-Dec)","Package Delivery Driver","Feeder Driver","Automotive Mechanic","Facilities Mechanic","Sales Representative","Warehouse Associate","UPS Freight Over the Road Driver","Part-time Operations Supervisor","Business Analyst"],"lat":29.48611,"lon":-98.579096}],"Austin":[{"id":"TXAUS","name":"Austin","city":"Austin","state":"TX","zip":"78754","size":0,"jobs":["Package Handler","Driver Helper (Oct-Dec)","Package Delivery Driver","Feeder Driver","Automotive Mechanic","Facilities Mechanic","Sales Representative","Warehouse Associate","UPS Freight Over the Road Driver","Part-time Operations Supervisor","Business Analyst"],"lat":30.33545,"lon":-97.659264},{"id":"TXAUN","name":"Highland","city":"Austin","state":"TX","zip":"78754","size":1,"jobs":["Package Handler","Driver Helper (Oct-Dec)","Package Delivery Driver","Feeder Driver","Automotive Mechanic","Facilities Mechanic","Sales Representative","Warehouse Associate","UPS Freight Over the Road Driver","Part-time Operations Supervisor","Business Analyst"],"lat":30.332361,"lon":-97.658237}],"Houston":[{"id":"TXCAN","name":"Houston (Canino) Hub","city":"Houston","state":"TX","zip":"77037","size":0,"jobs":["Package Handler","Driver Helper (Oct-Dec)","Package Delivery Driver","Feeder Driver","Automotive Mechanic","Facilities Mechanic","Sales Representative","Warehouse Associate","UPS Freight Over the Road Driver","Part-time Operations Supervisor","Business Analyst"],"lat":29.880466,"lon":-95.407975},{"id":"TXMYK","name":"Mykawa","city":"Houston","state":"TX","zip":"77033","size":0,"jobs":["Package Handler","Driver Helper (Oct-Dec)","Package Delivery Driver","Feeder Driver","Automotive Mechanic","Facilities Mechanic","Sales Representative","Warehouse Associate","UPS Freight Over the Road Driver","Part-time Operations Supervisor","Business Analyst"],"lat":29.67442,"lon":-95.324231},{"id":"TXCAV","name":"Houston","city":"Houston","state":"TX","zip":"77026","size":1,"jobs":["Package Handler","Driver Helper (Oct-Dec)","Package Delivery Driver","Feeder Driver","Automotive Mechanic","Facilities Mechanic","Sales Representative","Warehouse Associate","UPS Freight Over the Road Driver","Part-time Operations Supervisor","Business Analyst"],"lat":29.805297,"lon":-95.34554}],"Dallas":[{"id":"TXDAL","name":"Dallas","city":"Dallas","state":"TX","zip":"75229","size":0,"jobs":["Package Handler","Driver Helper (Oct-Dec)","Package Delivery Driver","Feeder Driver","Automotive Mechanic","Facilities Mechanic","Sales Representative","Warehouse Associate","UPS Freight Over the Road Driver","Part-time Operations Supervisor","Business Analyst"],"lat":32.88524,"lon":-96.879354},{"id":"TXACC","name":"Accounting","city":"Dallas","state":"TX","zip":"75229","size":1,"jobs":["Package Handler","Driver Helper (Oct-Dec)","Package Delivery Driver","Feeder Driver","Automotive Mechanic","Facilities Mechanic","Sales Representative","Warehouse Associate","UPS Freight Over the Road Driver","Part-time Operations Supervisor","Business Analyst"],"lat":32.886994,"lon":-96.87867},{"id":"TXDSD","name":"Dallas (Airport) Eww","city":"Dallas","state":"TX","zip":"75261","size":1,"jobs":["Package Handler","Driver Helper (Oct-Dec)","Package Delivery Driver","Feeder Driver","Automotive Mechanic","Facilities Mechanic","Sales Representative","Warehouse Associate","UPS Freight Over the Road Driver","Part-time Operations Supervisor","Business Analyst"],"lat":32.899076,"lon":-97.063365},{"id":"TXEPD","name":"Dallas","city":"Dallas","state":"TX","zip":"75061","size":1,"jobs":["Package Handler","Driver Helper (Oct-Dec)","Package Delivery Driver","Feeder Driver","Automotive Mechanic","Facilities Mechanic","Sales Representative","Warehouse Associate","UPS Freight Over the Road Driver","Part-time Operations Supervisor","Business Analyst"],"lat":32.8214,"lon":-96.906043}],"Dfw Airport":[{"id":"TXDFA","name":"Dallas\/Fort Worth Airport Hub","city":"Dfw Airport","state":"TX","zip":"75261","size":0,"jobs":["Package Handler","Driver Helper (Oct-Dec)","Package Delivery Driver","Feeder Driver","Automotive Mechanic","Facilities Mechanic","Sales Representative","Warehouse Associate","UPS Freight Over the Road Driver","Part-time Operations Supervisor","Business Analyst"],"lat":32.899809,"lon":-97.040335}],"El Paso":[{"id":"TXELP","name":"El Paso","city":"El Paso","state":"TX","zip":"79906","size":0,"jobs":["Package Handler","Driver Helper (Oct-Dec)","Package Delivery Driver","Feeder Driver","Automotive Mechanic","Facilities Mechanic","Sales Representative","Warehouse Associate","UPS Freight Over the Road Driver","Part-time Operations Supervisor","Business Analyst"],"lat":31.816571,"lon":-106.394129},{"id":"TXEPO","name":"Scs-elpaso Gateway Blvd E-2022","city":"El Paso","state":"TX","zip":"79905","size":1,"jobs":["Package Handler","Driver Helper (Oct-Dec)","Package Delivery Driver","Feeder Driver","Automotive Mechanic","Facilities Mechanic","Sales Representative","Warehouse Associate","UPS Freight Over the Road Driver","Part-time Operations Supervisor","Business Analyst"],"lat":31.776585,"lon":-106.431827}],"Ft Worth":[{"id":"TXFOR","name":"Independence Hub","city":"Ft Worth","state":"TX","zip":"76177","size":0,"jobs":["Package Handler","Driver Helper (Oct-Dec)","Package Delivery Driver","Feeder Driver","Automotive Mechanic","Facilities Mechanic","Sales Representative","Warehouse Associate","UPS Freight Over the Road Driver","Part-time Operations Supervisor","Business Analyst"],"lat":32.98036,"lon":-97.248235}],"Fort Worth":[{"id":"TXFTW","name":"Fort Worth","city":"Fort Worth","state":"TX","zip":"76102","size":0,"jobs":["Package Handler","Driver Helper (Oct-Dec)","Package Delivery Driver","Feeder Driver","Automotive Mechanic","Facilities Mechanic","Sales Representative","Warehouse Associate","UPS Freight Over the Road Driver","Part-time Operations Supervisor","Business Analyst"],"lat":32.779175,"lon":-97.328467},{"id":"TXFTH","name":"Alliance","city":"Fort Worth","state":"TX","zip":"76177","size":1,"jobs":["Package Handler","Driver Helper (Oct-Dec)","Package Delivery Driver","Feeder Driver","Automotive Mechanic","Facilities Mechanic","Sales Representative","Warehouse Associate","UPS Freight Over the Road Driver","Part-time Operations Supervisor","Business Analyst"],"lat":32.973122,"lon":-97.252696},{"id":"TXWTH","name":"Fort Worth","city":"Fort Worth","state":"TX","zip":"76119","size":1,"jobs":["Package Handler","Driver Helper (Oct-Dec)","Package Delivery Driver","Feeder Driver","Automotive Mechanic","Facilities Mechanic","Sales Representative","Warehouse Associate","UPS Freight Over the Road Driver","Part-time Operations Supervisor","Business Analyst"],"lat":32.68294,"lon":-97.247831}],"Mesquite":[{"id":"TXMES","name":"Mesquite","city":"Mesquite","state":"TX","zip":"75149","size":0,"jobs":["Package Handler","Driver Helper (Oct-Dec)","Package Delivery Driver","Feeder Driver","Automotive Mechanic","Facilities Mechanic","Sales Representative","Warehouse Associate","UPS Freight Over the Road Driver","Part-time Operations Supervisor","Business Analyst"],"lat":32.792498,"lon":-96.665133}],"Stafford":[{"id":"TXSTA","name":"Stafford","city":"Stafford","state":"TX","zip":"77477","size":0,"jobs":["Package Handler","Driver Helper (Oct-Dec)","Package Delivery Driver","Feeder Driver","Automotive Mechanic","Facilities Mechanic","Sales Representative","Warehouse Associate","UPS Freight Over the Road Driver","Part-time Operations Supervisor","Business Analyst"],"lat":29.619865,"lon":-95.558212}],"Abilene":[{"id":"TXABI","name":"Abilene","city":"Abilene","state":"TX","zip":"79603","size":1,"jobs":["Package Handler","Driver Helper (Oct-Dec)","Package Delivery Driver","Feeder Driver","Automotive Mechanic","Facilities Mechanic","Sales Representative","Warehouse Associate","UPS Freight Over the Road Driver","Part-time Operations Supervisor","Business Analyst"],"lat":32.457151,"lon":-99.817637}],"Amarillo":[{"id":"TXAMA","name":"Amarillo","city":"Amarillo","state":"TX","zip":"79118","size":1,"jobs":["Package Handler","Driver Helper (Oct-Dec)","Package Delivery Driver","Feeder Driver","Automotive Mechanic","Facilities Mechanic","Sales Representative","Warehouse Associate","UPS Freight Over the Road Driver","Part-time Operations Supervisor","Business Analyst"],"lat":35.191471,"lon":-101.748454}],"Arlington":[{"id":"TXARL","name":"Arlington","city":"Arlington","state":"TX","zip":"76011","size":1,"jobs":["Package Handler","Driver Helper (Oct-Dec)","Package Delivery Driver","Feeder Driver","Automotive Mechanic","Facilities Mechanic","Sales Representative","Warehouse Associate","UPS Freight Over the Road Driver","Part-time Operations Supervisor","Business Analyst"],"lat":32.744453,"lon":-97.081047}],"Baytown":[{"id":"TXBAT","name":"Baytown Center","city":"Baytown","state":"TX","zip":"77521","size":1,"jobs":["Package Handler","Driver Helper (Oct-Dec)","Package Delivery Driver","Feeder Driver","Automotive Mechanic","Facilities Mechanic","Sales Representative","Warehouse Associate","UPS Freight Over the Road Driver","Part-time Operations Supervisor","Business Analyst"],"lat":29.806488,"lon":-94.974152}],"Beaumont":[{"id":"TXBEA","name":"Beaumont","city":"Beaumont","state":"TX","zip":"77705","size":1,"jobs":["Package Handler","Driver Helper (Oct-Dec)","Package Delivery Driver","Feeder Driver","Automotive Mechanic","Facilities Mechanic","Sales Representative","Warehouse Associate","UPS Freight Over the Road Driver","Part-time Operations Supervisor","Business Analyst"],"lat":30.055737,"lon":-94.131283}],"Belton":[{"id":"TXBEL","name":"Belton Center","city":"Belton","state":"TX","zip":"76513","size":1,"jobs":["Package Handler","Driver Helper (Oct-Dec)","Package Delivery Driver","Feeder Driver","Automotive Mechanic","Facilities Mechanic","Sales Representative","Warehouse Associate","UPS Freight Over the Road Driver","Part-time Operations Supervisor","Business Analyst"],"lat":30.98338,"lon":-97.50656}],"Bryan":[{"id":"TXBRN","name":"Bryan Center","city":"Bryan","state":"TX","zip":"77803","size":1,"jobs":["Package Handler","Driver Helper (Oct-Dec)","Package Delivery Driver","Feeder Driver","Automotive Mechanic","Facilities Mechanic","Sales Representative","Warehouse Associate","UPS Freight Over the Road Driver","Part-time Operations Supervisor","Business Analyst"],"lat":30.679734,"lon":-96.347982}],"Conroe":[{"id":"TXCON","name":"Conroe","city":"Conroe","state":"TX","zip":"77303-2121","size":1,"jobs":["Package Handler","Driver Helper (Oct-Dec)","Package Delivery Driver","Feeder Driver","Automotive Mechanic","Facilities Mechanic","Sales Representative","Warehouse Associate","UPS Freight Over the Road Driver","Part-time Operations Supervisor","Business Analyst"],"lat":30.355247,"lon":-95.429829}],"Coppell":[{"id":"TXCOP","name":"Dallas Sandy Lake","city":"Coppell","state":"TX","zip":"75019","size":1,"jobs":["Package Handler","Driver Helper (Oct-Dec)","Package Delivery Driver","Feeder Driver","Automotive Mechanic","Facilities Mechanic","Sales Representative","Warehouse Associate","UPS Freight Over the Road Driver","Part-time Operations Supervisor","Business Analyst"],"lat":32.97044,"lon":-96.974454},{"id":"TXCPP","name":"Dallas\/Coppell","city":"Coppell","state":"TX","zip":"75019","size":1,"jobs":["Package Handler","Driver Helper (Oct-Dec)","Package Delivery Driver","Feeder Driver","Automotive Mechanic","Facilities Mechanic","Sales Representative","Warehouse Associate","UPS Freight Over the Road Driver","Part-time Operations Supervisor","Business Analyst"],"lat":32.944427,"lon":-97.01438}],"Corpus Christi":[{"id":"TXCOR","name":"Corpus Christi","city":"Corpus Christi","state":"TX","zip":"78408","size":1,"jobs":["Package Handler","Driver Helper (Oct-Dec)","Package Delivery Driver","Feeder Driver","Automotive Mechanic","Facilities Mechanic","Sales Representative","Warehouse Associate","UPS Freight Over the Road Driver","Part-time Operations Supervisor","Business Analyst"],"lat":27.790968,"lon":-97.454411}],"Denton":[{"id":"TXDEN","name":"Denton","city":"Denton","state":"TX","zip":"76205","size":1,"jobs":["Package Handler","Driver Helper (Oct-Dec)","Package Delivery Driver","Feeder Driver","Automotive Mechanic","Facilities Mechanic","Sales Representative","Warehouse Associate","UPS Freight Over the Road Driver","Part-time Operations Supervisor","Business Analyst"],"lat":33.202567,"lon":-97.115497}],"Laredo":[{"id":"TXEDO","name":"Laredo","city":"Laredo","state":"TX","zip":"78045","size":1,"jobs":["Package Handler","Driver Helper (Oct-Dec)","Package Delivery Driver","Feeder Driver","Automotive Mechanic","Facilities Mechanic","Sales Representative","Warehouse Associate","UPS Freight Over the Road Driver","Part-time Operations Supervisor","Business Analyst"],"lat":27.615662,"lon":-99.503391}],"League City":[{"id":"TXLCI","name":"League City","city":"League City","state":"TX","zip":"77573","size":1,"jobs":["Package Handler","Driver Helper (Oct-Dec)","Package Delivery Driver","Feeder Driver","Automotive Mechanic","Facilities Mechanic","Sales Representative","Warehouse Associate","UPS Freight Over the Road Driver","Part-time Operations Supervisor","Business Analyst"],"lat":29.491315,"lon":-95.100932}],"Leon Valley":[{"id":"TXLEO","name":"Leon Valley","city":"Leon Valley","state":"TX","zip":"78238","size":1,"jobs":["Package Handler","Driver Helper (Oct-Dec)","Package Delivery Driver","Feeder Driver","Automotive Mechanic","Facilities Mechanic","Sales Representative","Warehouse Associate","UPS Freight Over the Road Driver","Part-time Operations Supervisor","Business Analyst"],"lat":29.504823,"lon":-98.633457}],"Longview":[{"id":"TXLON","name":"Longview","city":"Longview","state":"TX","zip":"75601","size":1,"jobs":["Package Handler","Driver Helper (Oct-Dec)","Package Delivery Driver","Feeder Driver","Automotive Mechanic","Facilities Mechanic","Sales Representative","Warehouse Associate","UPS Freight Over the Road Driver","Part-time Operations Supervisor","Business Analyst"],"lat":32.501864,"lon":-94.711069}],"Lubbock":[{"id":"TXLUB","name":"Lubbock Center","city":"Lubbock","state":"TX","zip":"79404","size":1,"jobs":["Package Handler","Driver Helper (Oct-Dec)","Package Delivery Driver","Feeder Driver","Automotive Mechanic","Facilities Mechanic","Sales Representative","Warehouse Associate","UPS Freight Over the Road Driver","Part-time Operations Supervisor","Business Analyst"],"lat":33.554753,"lon":-101.829821}],"Lufkin":[{"id":"TXLUF","name":"Lufkin","city":"Lufkin","state":"TX","zip":"75901","size":1,"jobs":["Package Handler","Driver Helper (Oct-Dec)","Package Delivery Driver","Feeder Driver","Automotive Mechanic","Facilities Mechanic","Sales Representative","Warehouse Associate","UPS Freight Over the Road Driver","Part-time Operations Supervisor","Business Analyst"],"lat":31.286659,"lon":-94.730049}],"Mc Allen":[{"id":"TXMCA","name":"Mc Allen","city":"Mc Allen","state":"TX","zip":"78501","size":1,"jobs":["Package Handler","Driver Helper (Oct-Dec)","Package Delivery Driver","Feeder Driver","Automotive Mechanic","Facilities Mechanic","Sales Representative","Warehouse Associate","UPS Freight Over the Road Driver","Part-time Operations Supervisor","Business Analyst"],"lat":26.21995,"lon":-98.204189}],"Mckinney":[{"id":"TXMCY","name":"Mckinney","city":"Mckinney","state":"TX","zip":"75069","size":1,"jobs":["Package Handler","Driver Helper (Oct-Dec)","Package Delivery Driver","Feeder Driver","Automotive Mechanic","Facilities Mechanic","Sales Representative","Warehouse Associate","UPS Freight Over the Road Driver","Part-time Operations Supervisor","Business Analyst"],"lat":33.230761,"lon":-96.624802}],"Midland":[{"id":"TXMID","name":"Midland","city":"Midland","state":"TX","zip":"79701","size":1,"jobs":["Package Handler","Driver Helper (Oct-Dec)","Package Delivery Driver","Feeder Driver","Automotive Mechanic","Facilities Mechanic","Sales Representative","Warehouse Associate","UPS Freight Over the Road Driver","Part-time Operations Supervisor","Business Analyst"],"lat":31.961018,"lon":-102.134025}],"Odessa":[{"id":"TXODE","name":"Odessa Center","city":"Odessa","state":"TX","zip":"79760","size":1,"jobs":["Package Handler","Driver Helper (Oct-Dec)","Package Delivery Driver","Feeder Driver","Automotive Mechanic","Facilities Mechanic","Sales Representative","Warehouse Associate","UPS Freight Over the Road Driver","Part-time Operations Supervisor","Business Analyst"],"lat":31.861311,"lon":-102.338211}],"San Marcos":[{"id":"TXSMR","name":"San Marcos","city":"San Marcos","state":"TX","zip":"78666","size":1,"jobs":["Package Handler","Driver Helper (Oct-Dec)","Package Delivery Driver","Feeder Driver","Automotive Mechanic","Facilities Mechanic","Sales Representative","Warehouse Associate","UPS Freight Over the Road Driver","Part-time Operations Supervisor","Business Analyst"],"lat":29.872428,"lon":-97.93695}],"Tyler":[{"id":"TXTYL","name":"Tyler","city":"Tyler","state":"TX","zip":"75702","size":1,"jobs":["Package Handler","Driver Helper (Oct-Dec)","Package Delivery Driver","Feeder Driver","Automotive Mechanic","Facilities Mechanic","Sales Representative","Warehouse Associate","UPS Freight Over the Road Driver","Part-time Operations Supervisor","Business Analyst"],"lat":32.34111,"lon":-95.325326}],"Waco":[{"id":"TXWAC","name":"Waco","city":"Waco","state":"TX","zip":"76710","size":1,"jobs":["Package Handler","Driver Helper (Oct-Dec)","Package Delivery Driver","Feeder Driver","Automotive Mechanic","Facilities Mechanic","Sales Representative","Warehouse Associate","UPS Freight Over the Road Driver","Part-time Operations Supervisor","Business Analyst"],"lat":31.513935,"lon":-97.18197}]}