{"Salt Lake City":[{"id":"UTCST","name":"Salt Lake City - Gbs","city":"Salt Lake City","state":"UT","zip":"84119","size":0,"jobs":["Package Handler","Driver Helper (Oct-Dec)","Package Delivery Driver","Feeder Driver","Automotive Mechanic","Facilities Mechanic","Sales Representative","Warehouse Associate","UPS Freight Over the Road Driver","Part-time Operations Supervisor","Business Analyst"],"lat":40.727373,"lon":-111.975357},{"id":"UTSLC","name":"Salt Lake City","city":"Salt Lake City","state":"UT","zip":"84119","size":0,"jobs":["Package Handler","Driver Helper (Oct-Dec)","Package Delivery Driver","Feeder Driver","Automotive Mechanic","Facilities Mechanic","Sales Representative","Warehouse Associate","UPS Freight Over the Road Driver","Part-time Operations Supervisor","Business Analyst"],"lat":40.715364,"lon":-111.94677},{"id":"UTLTC","name":"Salt Lake City","city":"Salt Lake City","state":"UT","zip":"84104","size":1,"jobs":["Package Handler","Driver Helper (Oct-Dec)","Package Delivery Driver","Feeder Driver","Automotive Mechanic","Facilities Mechanic","Sales Representative","Warehouse Associate","UPS Freight Over the Road Driver","Part-time Operations Supervisor","Business Analyst"],"lat":40.740428,"lon":-111.963044},{"id":"UTSLK","name":"Salt Lake Airport","city":"Salt Lake City","state":"UT","zip":"84116","size":1,"jobs":["Package Handler","Driver Helper (Oct-Dec)","Package Delivery Driver","Feeder Driver","Automotive Mechanic","Facilities Mechanic","Sales Representative","Warehouse Associate","UPS Freight Over the Road Driver","Part-time Operations Supervisor","Business Analyst"],"lat":40.804718,"lon":-111.98394}],"Ogden":[{"id":"UTOGD","name":"Ogden","city":"Ogden","state":"UT","zip":"84401","size":1,"jobs":["Package Handler","Driver Helper (Oct-Dec)","Package Delivery Driver","Feeder Driver","Automotive Mechanic","Facilities Mechanic","Sales Representative","Warehouse Associate","UPS Freight Over the Road Driver","Part-time Operations Supervisor","Business Analyst"],"lat":41.215935,"lon":-112.003005}],"Orem":[{"id":"UTORE","name":"Provo Center","city":"Orem","state":"UT","zip":"84058","size":1,"jobs":["Package Handler","Driver Helper (Oct-Dec)","Package Delivery Driver","Feeder Driver","Automotive Mechanic","Facilities Mechanic","Sales Representative","Warehouse Associate","UPS Freight Over the Road Driver","Part-time Operations Supervisor","Business Analyst"],"lat":40.287295,"lon":-111.731332}]}