{"Chantilly":[{"id":"VADUL","name":"Dulles","city":"Chantilly","state":"VA","zip":"20151","size":0,"jobs":["Package Handler","Driver Helper (Oct-Dec)","Package Delivery Driver","Feeder Driver","Automotive Mechanic","Facilities Mechanic","Sales Representative","Warehouse Associate","UPS Freight Over the Road Driver","Part-time Operations Supervisor","Business Analyst"],"lat":38.894719,"lon":-77.459928}],"Richmond":[{"id":"VARMD","name":"Richmond","city":"Richmond","state":"VA","zip":"23237","size":0,"jobs":["Package Handler","Driver Helper (Oct-Dec)","Package Delivery Driver","Feeder Driver","Automotive Mechanic","Facilities Mechanic","Sales Representative","Warehouse Associate","UPS Freight Over the Road Driver","Part-time Operations Supervisor","Business Analyst"],"lat":37.400125,"lon":-77.411275},{"id":"VARMN","name":"Gen Office","city":"Richmond","state":"VA","zip":"23224","size":0,"jobs":["Package Handler","Driver Helper (Oct-Dec)","Package Delivery Driver","Feeder Driver","Automotive Mechanic","Facilities Mechanic","Sales Representative","Warehouse Associate","UPS Freight Over the Road Driver","Part-time Operations Supervisor","Business Analyst"],"lat":37.525434,"lon":-77.446467},{"id":"VAMPK","name":"Richmond","city":"Richmond","state":"VA","zip":"23225","size":1,"jobs":["Package Handler","Driver Helper (Oct-Dec)","Package Delivery Driver","Feeder Driver","Automotive Mechanic","Facilities Mechanic","Sales Representative","Warehouse Associate","UPS Freight Over the Road Driver","Part-time Operations Supervisor","Business Analyst"],"lat":37.504544,"lon":-77.497125}],"Roanoke":[{"id":"VAROA","name":"Roanoke  Hub","city":"Roanoke","state":"VA","zip":"24019","size":0,"jobs":["Package Handler","Driver Helper (Oct-Dec)","Package Delivery Driver","Feeder Driver","Automotive Mechanic","Facilities Mechanic","Sales Representative","Warehouse Associate","UPS Freight Over the Road Driver","Part-time Operations Supervisor","Business Analyst"],"lat":37.319648,"lon":-79.978455}],"Alexandria":[{"id":"VAALE","name":"Alexandria","city":"Alexandria","state":"VA","zip":"22304","size":1,"jobs":["Package Handler","Driver Helper (Oct-Dec)","Package Delivery Driver","Feeder Driver","Automotive Mechanic","Facilities Mechanic","Sales Representative","Warehouse Associate","UPS Freight Over the Road Driver","Part-time Operations Supervisor","Business Analyst"],"lat":38.801075,"lon":-77.129106}],"Bristol":[{"id":"VABRI","name":"Bristol","city":"Bristol","state":"VA","zip":"24201","size":1,"jobs":["Package Handler","Driver Helper (Oct-Dec)","Package Delivery Driver","Feeder Driver","Automotive Mechanic","Facilities Mechanic","Sales Representative","Warehouse Associate","UPS Freight Over the Road Driver","Part-time Operations Supervisor","Business Analyst"],"lat":36.618331,"lon":-82.125685}],"Charlottesville":[{"id":"VACHA","name":"Charlottesville","city":"Charlottesville","state":"VA","zip":"22911","size":1,"jobs":["Package Handler","Driver Helper (Oct-Dec)","Package Delivery Driver","Feeder Driver","Automotive Mechanic","Facilities Mechanic","Sales Representative","Warehouse Associate","UPS Freight Over the Road Driver","Part-time Operations Supervisor","Business Analyst"],"lat":38.017452,"lon":-78.414767}],"Danville":[{"id":"VADAN","name":"Danville","city":"Danville","state":"VA","zip":"24541","size":1,"jobs":["Package Handler","Driver Helper (Oct-Dec)","Package Delivery Driver","Feeder Driver","Automotive Mechanic","Facilities Mechanic","Sales Representative","Warehouse Associate","UPS Freight Over the Road Driver","Part-time Operations Supervisor","Business Analyst"],"lat":36.592549,"lon":-79.424705}],"Fredericksburg":[{"id":"VAFRE","name":"Fredericksburg","city":"Fredericksburg","state":"VA","zip":"22408","size":1,"jobs":["Package Handler","Driver Helper (Oct-Dec)","Package Delivery Driver","Feeder Driver","Automotive Mechanic","Facilities Mechanic","Sales Representative","Warehouse Associate","UPS Freight Over the Road Driver","Part-time Operations Supervisor","Business Analyst"],"lat":38.271174,"lon":-77.463872}],"Front Royal":[{"id":"VAFRO","name":"Front Royal","city":"Front Royal","state":"VA","zip":"22630","size":1,"jobs":["Package Handler","Driver Helper (Oct-Dec)","Package Delivery Driver","Feeder Driver","Automotive Mechanic","Facilities Mechanic","Sales Representative","Warehouse Associate","UPS Freight Over the Road Driver","Part-time Operations Supervisor","Business Analyst"],"lat":38.911125,"lon":-78.181943}],"Lynchburg":[{"id":"VALYN","name":"Lynchburg","city":"Lynchburg","state":"VA","zip":"24502","size":1,"jobs":["Package Handler","Driver Helper (Oct-Dec)","Package Delivery Driver","Feeder Driver","Automotive Mechanic","Facilities Mechanic","Sales Representative","Warehouse Associate","UPS Freight Over the Road Driver","Part-time Operations Supervisor","Business Analyst"],"lat":37.370827,"lon":-79.180739}],"Newport News":[{"id":"VANEW","name":"Newport News","city":"Newport News","state":"VA","zip":"23606","size":1,"jobs":["Package Handler","Driver Helper (Oct-Dec)","Package Delivery Driver","Feeder Driver","Automotive Mechanic","Facilities Mechanic","Sales Representative","Warehouse Associate","UPS Freight Over the Road Driver","Part-time Operations Supervisor","Business Analyst"],"lat":32.533338,"lon":-81.84609}],"Norfolk":[{"id":"VANOR","name":"Norfolk","city":"Norfolk","state":"VA","zip":"23513","size":1,"jobs":["Package Handler","Driver Helper (Oct-Dec)","Package Delivery Driver","Feeder Driver","Automotive Mechanic","Facilities Mechanic","Sales Representative","Warehouse Associate","UPS Freight Over the Road Driver","Part-time Operations Supervisor","Business Analyst"],"lat":36.884544,"lon":-76.220636}],"Springfield":[{"id":"VASPN","name":"Newington","city":"Springfield","state":"VA","zip":"22150","size":1,"jobs":["Package Handler","Driver Helper (Oct-Dec)","Package Delivery Driver","Feeder Driver","Automotive Mechanic","Facilities Mechanic","Sales Representative","Warehouse Associate","UPS Freight Over the Road Driver","Part-time Operations Supervisor","Business Analyst"],"lat":38.735347,"lon":-77.196854}],"Fishersville":[{"id":"VASTA","name":"Staunton","city":"Fishersville","state":"VA","zip":"22939","size":1,"jobs":["Package Handler","Driver Helper (Oct-Dec)","Package Delivery Driver","Feeder Driver","Automotive Mechanic","Facilities Mechanic","Sales Representative","Warehouse Associate","UPS Freight Over the Road Driver","Part-time Operations Supervisor","Business Analyst"],"lat":38.082263,"lon":-78.994184}],"Virginia Beach":[{"id":"VAVIR","name":"Virginia Beach","city":"Virginia Beach","state":"VA","zip":"23455","size":1,"jobs":["Package Handler","Driver Helper (Oct-Dec)","Package Delivery Driver","Feeder Driver","Automotive Mechanic","Facilities Mechanic","Sales Representative","Warehouse Associate","UPS Freight Over the Road Driver","Part-time Operations Supervisor","Business Analyst"],"lat":36.892237,"lon":-76.189983}]}