{"Redmond":[{"id":"WARED","name":"Redmond","city":"Redmond","state":"WA","zip":"98052","size":0,"jobs":["Package Handler","Driver Helper (Oct-Dec)","Package Delivery Driver","Feeder Driver","Automotive Mechanic","Facilities Mechanic","Sales Representative","Warehouse Associate","UPS Freight Over the Road Driver","Part-time Operations Supervisor","Business Analyst"],"lat":47.674608,"lon":-122.097576}],"Seattle":[{"id":"WASEA","name":"Seattle Hub & Administration","city":"Seattle","state":"WA","zip":"98108","size":0,"jobs":["Package Handler","Driver Helper (Oct-Dec)","Package Delivery Driver","Feeder Driver","Automotive Mechanic","Facilities Mechanic","Sales Representative","Warehouse Associate","UPS Freight Over the Road Driver","Part-time Operations Supervisor","Business Analyst"],"lat":47.563086,"lon":-122.325529},{"id":"WABOE","name":"Boeing Field","city":"Seattle","state":"WA","zip":"98108","size":1,"jobs":["Package Handler","Driver Helper (Oct-Dec)","Package Delivery Driver","Feeder Driver","Automotive Mechanic","Facilities Mechanic","Sales Representative","Warehouse Associate","UPS Freight Over the Road Driver","Part-time Operations Supervisor","Business Analyst"],"lat":47.534184,"lon":-122.300555},{"id":"WATKW","name":"Seattle","city":"Seattle","state":"WA","zip":"98168","size":1,"jobs":["Package Handler","Driver Helper (Oct-Dec)","Package Delivery Driver","Feeder Driver","Automotive Mechanic","Facilities Mechanic","Sales Representative","Warehouse Associate","UPS Freight Over the Road Driver","Part-time Operations Supervisor","Business Analyst"],"lat":47.501793,"lon":-122.290319}],"Spokane":[{"id":"WASPO","name":"Spokane Hub & Centers","city":"Spokane","state":"WA","zip":"99212-1194","size":0,"jobs":["Package Handler","Driver Helper (Oct-Dec)","Package Delivery Driver","Feeder Driver","Automotive Mechanic","Facilities Mechanic","Sales Representative","Warehouse Associate","UPS Freight Over the Road Driver","Part-time Operations Supervisor","Business Analyst"],"lat":47.6662,"lon":-117.310256}],"Auburn":[{"id":"WAABU","name":"Seattle","city":"Auburn","state":"WA","zip":"98001","size":1,"jobs":["Package Handler","Driver Helper (Oct-Dec)","Package Delivery Driver","Feeder Driver","Automotive Mechanic","Facilities Mechanic","Sales Representative","Warehouse Associate","UPS Freight Over the Road Driver","Part-time Operations Supervisor","Business Analyst"],"lat":47.339475,"lon":-122.266766}],"Bellingham":[{"id":"WABLH","name":"Bellingham Center","city":"Bellingham","state":"WA","zip":"98225","size":1,"jobs":["Package Handler","Driver Helper (Oct-Dec)","Package Delivery Driver","Feeder Driver","Automotive Mechanic","Facilities Mechanic","Sales Representative","Warehouse Associate","UPS Freight Over the Road Driver","Part-time Operations Supervisor","Business Analyst"],"lat":48.785225,"lon":-122.446132}],"Bremerton":[{"id":"WABRE","name":"Bremerton","city":"Bremerton","state":"WA","zip":"98310","size":1,"jobs":["Package Handler","Driver Helper (Oct-Dec)","Package Delivery Driver","Feeder Driver","Automotive Mechanic","Facilities Mechanic","Sales Representative","Warehouse Associate","UPS Freight Over the Road Driver","Part-time Operations Supervisor","Business Analyst"],"lat":47.558795,"lon":-122.698361}],"Everett":[{"id":"WAEVE","name":"Everett","city":"Everett","state":"WA","zip":"98204","size":1,"jobs":["Package Handler","Driver Helper (Oct-Dec)","Package Delivery Driver","Feeder Driver","Automotive Mechanic","Facilities Mechanic","Sales Representative","Warehouse Associate","UPS Freight Over the Road Driver","Part-time Operations Supervisor","Business Analyst"],"lat":47.907338,"lon":-122.246431}],"Fife":[{"id":"WAFIF","name":"Fife Building","city":"Fife","state":"WA","zip":"98424","size":1,"jobs":["Package Handler","Driver Helper (Oct-Dec)","Package Delivery Driver","Feeder Driver","Automotive Mechanic","Facilities Mechanic","Sales Representative","Warehouse Associate","UPS Freight Over the Road Driver","Part-time Operations Supervisor","Business Analyst"],"lat":47.236221,"lon":-122.334046},{"id":"WATAC","name":"Tacoma","city":"Fife","state":"WA","zip":"98424","size":1,"jobs":["Package Handler","Driver Helper (Oct-Dec)","Package Delivery Driver","Feeder Driver","Automotive Mechanic","Facilities Mechanic","Sales Representative","Warehouse Associate","UPS Freight Over the Road Driver","Part-time Operations Supervisor","Business Analyst"],"lat":47.23969,"lon":-122.361835}],"Tukwila":[{"id":"WAKEN","name":"Tukwila","city":"Tukwila","state":"WA","zip":"98188","size":1,"jobs":["Package Handler","Driver Helper (Oct-Dec)","Package Delivery Driver","Feeder Driver","Automotive Mechanic","Facilities Mechanic","Sales Representative","Warehouse Associate","UPS Freight Over the Road Driver","Part-time Operations Supervisor","Business Analyst"],"lat":47.451262,"lon":-122.253506}],"Kennewick":[{"id":"WAKWK","name":"Kennewick Office","city":"Kennewick","state":"WA","zip":"99336","size":1,"jobs":["Package Handler","Driver Helper (Oct-Dec)","Package Delivery Driver","Feeder Driver","Automotive Mechanic","Facilities Mechanic","Sales Representative","Warehouse Associate","UPS Freight Over the Road Driver","Part-time Operations Supervisor","Business Analyst"],"lat":46.21752,"lon":-119.209024}],"Pacific":[{"id":"WAPAC","name":"Pacific Bldg","city":"Pacific","state":"WA","zip":"98047","size":1,"jobs":["Package Handler","Driver Helper (Oct-Dec)","Package Delivery Driver","Feeder Driver","Automotive Mechanic","Facilities Mechanic","Sales Representative","Warehouse Associate","UPS Freight Over the Road Driver","Part-time Operations Supervisor","Business Analyst"],"lat":47.254365,"lon":-122.255383}],"Tumwater":[{"id":"WATUM","name":"Tumwater","city":"Tumwater","state":"WA","zip":"98501","size":1,"jobs":["Package Handler","Driver Helper (Oct-Dec)","Package Delivery Driver","Feeder Driver","Automotive Mechanic","Facilities Mechanic","Sales Representative","Warehouse Associate","UPS Freight Over the Road Driver","Part-time Operations Supervisor","Business Analyst"],"lat":46.981152,"lon":-122.913998}],"Vancouver":[{"id":"WAVAN","name":"Vancouver","city":"Vancouver","state":"WA","zip":"98661","size":1,"jobs":["Package Handler","Driver Helper (Oct-Dec)","Package Delivery Driver","Feeder Driver","Automotive Mechanic","Facilities Mechanic","Sales Representative","Warehouse Associate","UPS Freight Over the Road Driver","Part-time Operations Supervisor","Business Analyst"],"lat":45.670526,"lon":-122.63558}]}