{"Elm Grove":[{"id":"WIELM","name":"Elm Grove","city":"Elm Grove","state":"WI","zip":"53122","size":0,"jobs":["Package Handler","Driver Helper (Oct-Dec)","Package Delivery Driver","Feeder Driver","Automotive Mechanic","Facilities Mechanic","Part-time Operations Supervisor"],"lat":43.038962,"lon":-88.070194}],"Oak Creek":[{"id":"WIOAK","name":"Oak Creek","city":"Oak Creek","state":"WI","zip":"53154","size":0,"jobs":["Package Handler","Driver Helper (Oct-Dec)","Package Delivery Driver","Feeder Driver","Automotive Mechanic","Facilities Mechanic","Part-time Operations Supervisor"],"lat":42.921718,"lon":-87.91906}],"Milwaukee":[{"id":"WIAIR","name":"Milwaukee Air Gateway","city":"Milwaukee","state":"WI","zip":"53207","size":1,"jobs":["Package Handler","Feeder Driver","Part-time Operations Supervisor"],"lat":42.943927,"lon":-87.916566},{"id":"WIMLK","name":"Milwaukee","city":"Milwaukee","state":"WI","zip":"53221","size":1,"jobs":["Package Handler","UPS Freight Over the Road Driver","Part-time Operations Supervisor"],"lat":42.955124,"lon":-87.92769}],"Altoona":[{"id":"WIEAU","name":"Eau Claire Center","city":"Altoona","state":"WI","zip":"54720","size":1,"jobs":["Package Handler","Driver Helper (Oct-Dec)","Package Delivery Driver","Feeder Driver","Automotive Mechanic","Facilities Mechanic","Part-time Operations Supervisor"],"lat":44.800604,"lon":-91.463983}],"Green Bay":[{"id":"WIGRE","name":"Green Bay","city":"Green Bay","state":"WI","zip":"54303","size":1,"jobs":["Package Handler","Driver Helper (Oct-Dec)","Package Delivery Driver","Feeder Driver","Automotive Mechanic","Facilities Mechanic","Part-time Operations Supervisor"],"lat":44.529501,"lon":-88.090106}],"Janesville":[{"id":"WIJAN","name":"Janesville","city":"Janesville","state":"WI","zip":"53545","size":1,"jobs":["Package Handler","Driver Helper (Oct-Dec)","Package Delivery Driver","Feeder Driver","Automotive Mechanic","Facilities Mechanic","Part-time Operations Supervisor"],"lat":42.633582,"lon":-89.031708}],"La Crosse":[{"id":"WILAC","name":"La Crosse","city":"La Crosse","state":"WI","zip":"54603","size":1,"jobs":["Package Handler","Driver Helper (Oct-Dec)","Package Delivery Driver","Feeder Driver","Automotive Mechanic","Facilities Mechanic","Part-time Operations Supervisor"],"lat":43.8587,"lon":-91.227089}],"Madison":[{"id":"WIMAD","name":"Madison","city":"Madison","state":"WI","zip":"53718","size":1,"jobs":["Package Handler","Driver Helper (Oct-Dec)","Package Delivery Driver","Feeder Driver","Automotive Mechanic","Facilities Mechanic","Part-time Operations Supervisor"],"lat":43.063082,"lon":-89.294796}],"Middleton":[{"id":"WIMID","name":"Middleton Center","city":"Middleton","state":"WI","zip":"53562","size":1,"jobs":["Package Handler","Driver Helper (Oct-Dec)","Package Delivery Driver","Feeder Driver","Automotive Mechanic","Facilities Mechanic","Part-time Operations Supervisor"],"lat":43.099548,"lon":-89.525252}],"Oshkosh":[{"id":"WIOSH","name":"Oshkosh","city":"Oshkosh","state":"WI","zip":"54901","size":1,"jobs":["Package Handler","Driver Helper (Oct-Dec)","Package Delivery Driver","Feeder Driver","Automotive Mechanic","Facilities Mechanic","Part-time Operations Supervisor"],"lat":44.065724,"lon":-88.53806}],"Sheboygan":[{"id":"WISHE","name":"Sheboygan","city":"Sheboygan","state":"WI","zip":"53081","size":1,"jobs":["Package Handler","Driver Helper (Oct-Dec)","Package Delivery Driver","Feeder Driver","Automotive Mechanic","Facilities Mechanic","Part-time Operations Supervisor"],"lat":43.720552,"lon":-87.754012}],"Stevens Point":[{"id":"WISTE","name":"Stevens Point Hub","city":"Stevens Point","state":"WI","zip":"54481","size":1,"jobs":["Package Handler","Driver Helper (Oct-Dec)","Package Delivery Driver","Feeder Driver","Automotive Mechanic","Facilities Mechanic","Part-time Operations Supervisor"],"lat":44.4999,"lon":-89.5595}],"Sturtevant":[{"id":"WISTU","name":"Sturtevant\/Lakeside Center","city":"Sturtevant","state":"WI","zip":"53177","size":1,"jobs":["Package Handler","Driver Helper (Oct-Dec)","Package Delivery Driver","Feeder Driver","Automotive Mechanic","Facilities Mechanic","Part-time Operations Supervisor"],"lat":42.698257,"lon":-87.911182}],"Wausau":[{"id":"WIWAS","name":"Wausau","city":"Wausau","state":"WI","zip":"54401","size":1,"jobs":["Package Handler","Driver Helper (Oct-Dec)","Package Delivery Driver","Feeder Driver","Automotive Mechanic","Facilities Mechanic","Part-time Operations Supervisor"],"lat":44.955991,"lon":-89.722828}],"Watertown":[{"id":"WIWAT","name":"Watertown","city":"Watertown","state":"WI","zip":"53094","size":1,"jobs":["Package Handler","Driver Helper (Oct-Dec)","Package Delivery Driver","Feeder Driver","Automotive Mechanic","Facilities Mechanic","Part-time Operations Supervisor"],"lat":43.174195,"lon":-88.71077}]}