{"Birmingham":[{"id":"ALBIR","name":"Birmingham Center","city":"Birmingham","state":"AL","zip":"35209","size":0,"jobs":["Package Handler","Driver Helper (Oct-Dec)","Package Delivery Driver","Feeder Driver","Automotive Mechanic","Facilities Mechanic","Part-time Operations Supervisor"],"lat":33.451323,"lon":-86.846902},{"id":"ALROE","name":"Roebuck","city":"Birmingham","state":"AL","zip":"35217","size":1,"jobs":["Package Handler","Driver Helper (Oct-Dec)","Package Delivery Driver","Feeder Driver","Automotive Mechanic","Facilities Mechanic","Part-time Operations Supervisor"],"lat":33.567732,"lon":-86.766212}],"Montgomery":[{"id":"ALMON","name":"Montgomery","city":"Montgomery","state":"AL","zip":"36109","size":0,"jobs":["Package Handler","Driver Helper (Oct-Dec)","Package Delivery Driver","Feeder Driver","Automotive Mechanic","Facilities Mechanic","Part-time Operations Supervisor"],"lat":32.413937,"lon":-86.304826}],"Huntsville":[{"id":"ALHUN","name":"Huntsville","city":"Huntsville","state":"AL","zip":"35811","size":1,"jobs":["Package Handler","Driver Helper (Oct-Dec)","Package Delivery Driver","Feeder Driver","Automotive Mechanic","Facilities Mechanic","Part-time Operations Supervisor"],"lat":34.792776,"lon":-86.57136}],"Whistler":[{"id":"ALMOB","name":"Mobile Center","city":"Whistler","state":"AL","zip":"36612","size":1,"jobs":["Package Handler","Driver Helper (Oct-Dec)","Package Delivery Driver","Feeder Driver","Automotive Mechanic","Facilities Mechanic","Part-time Operations Supervisor"],"lat":30.746654,"lon":-88.118077}]}