{"Alpharetta":[{"id":"GAAPR","name":"UPS Supply Chain Solutions","city":"Alpharetta","state":"GA","zip":"30005","size":0,"jobs":["General Management Staff","Administrative Support Staff","Information Technology Staff"],"lat":34.080801,"lon":-84.263842}],"Atlanta":[{"id":"GAATL","name":"Atlanta Hub","city":"Atlanta","state":"GA","zip":"30336","size":0,"jobs":["Package Handler","Driver Helper (Oct-Dec)","Package Delivery Driver","Feeder Driver","Automotive Mechanic","Facilities Mechanic","Part-time Operations Supervisor"],"lat":33.760279,"lon":-84.544078},{"id":"GACOR","name":"UPS Corporate Offices","city":"Atlanta","state":"GA","zip":"30328","size":0,"jobs":["General Management Staff","Administrative Support Staff","Information Technology Staff"],"lat":33.943347,"lon":-84.360167},{"id":"GAGEO","name":"Atlanta General Office","city":"Atlanta","state":"GA","zip":"30336","size":1,"jobs":["Package Handler","Driver Helper (Oct-Dec)","Package Delivery Driver","Feeder Driver","Automotive Mechanic","Facilities Mechanic","Part-time Operations Supervisor"],"lat":33.760776,"lon":-84.539775},{"id":"GAGLK","name":"35 Glenlake Building","city":"Atlanta","state":"GA","zip":"30328","size":1,"jobs":["General Management Staff","Administrative Support Staff"],"lat":33.939137,"lon":-84.359366},{"id":"GAMAV","name":"Atlanta","city":"Atlanta","state":"GA","zip":"30315","size":1,"jobs":["Package Handler","UPS Freight Over the Road Driver","Part-time Operations Supervisor"],"lat":33.687993,"lon":-84.349508},{"id":"GATLA","name":"Pratt Whitney Operations","city":"Atlanta","state":"GA","zip":"30354","size":1,"jobs":["Warehouse Associate","General Management Staff"],"lat":33.649379,"lon":-84.377902}],"Forest Park":[{"id":"GAFPA","name":"Forest Park","city":"Forest Park","state":"GA","zip":"30297","size":0,"jobs":["Package Handler","Driver Helper (Oct-Dec)","Package Delivery Driver","Feeder Driver","Automotive Mechanic","Facilities Mechanic","Part-time Operations Supervisor"],"lat":33.600163,"lon":-84.383308},{"id":"GAFRP","name":"Forest Park FS","city":"Forest Park","state":"GA","zip":"30297","size":1,"jobs":["Package Handler","UPS Freight Over the Road Driver","Part-time Operations Supervisor"],"lat":33.609195,"lon":-84.403056}],"Doraville":[{"id":"GAPLE","name":"Pleasantdale Hub","city":"Doraville","state":"GA","zip":"30340","size":0,"jobs":["Package Handler","Driver Helper (Oct-Dec)","Package Delivery Driver","Feeder Driver","Automotive Mechanic","Facilities Mechanic","Part-time Operations Supervisor"],"lat":33.895506,"lon":-84.243738}],"Roswell":[{"id":"GAROS","name":"Roswell Center","city":"Roswell","state":"GA","zip":"30076","size":0,"jobs":["Package Handler","Driver Helper (Oct-Dec)","Package Delivery Driver","Feeder Driver","Automotive Mechanic","Facilities Mechanic","Part-time Operations Supervisor"],"lat":34.051864,"lon":-84.321836},{"id":"GARSW","name":"Corporate Financial Service Center","city":"Roswell","state":"GA","zip":"30076","size":1,"jobs":["General Management Staff","Administrative Support Staff"],"lat":34.058953,"lon":-84.314322}],"Hopeville":[{"id":"GAAIR","name":"Airport Hub","city":"Hopeville","state":"GA","zip":"30354","size":1,"jobs":["Package Handler","Feeder Driver","Part-time Operations Supervisor"],"lat":33.652351,"lon":-84.420404}],"Athens (Bogart)":[{"id":"GAATH","name":"Athens","city":"Athens (Bogart)","state":"GA","zip":"30622","size":1,"jobs":["Package Handler","Driver Helper (Oct-Dec)","Package Delivery Driver","Feeder Driver","Automotive Mechanic","Facilities Mechanic","Part-time Operations Supervisor"],"lat":33.946057,"lon":-83.481573}],"Augusta":[{"id":"GAAUG","name":"Augusta","city":"Augusta","state":"GA","zip":"30901","size":1,"jobs":["Package Handler","Driver Helper (Oct-Dec)","Package Delivery Driver","Feeder Driver","Automotive Mechanic","Facilities Mechanic","Part-time Operations Supervisor"],"lat":33.452801,"lon":-82.037388}],"Columbus":[{"id":"GACOL","name":"Columbus","city":"Columbus","state":"GA","zip":"31904","size":1,"jobs":["Package Handler","Driver Helper (Oct-Dec)","Package Delivery Driver","Feeder Driver","Automotive Mechanic","Facilities Mechanic","Part-time Operations Supervisor"],"lat":32.528069,"lon":-84.973747}],"Dalton":[{"id":"GADAL","name":"Dalton","city":"Dalton","state":"GA","zip":"30720","size":1,"jobs":["Package Handler","Driver Helper (Oct-Dec)","Package Delivery Driver","Feeder Driver","Automotive Mechanic","Facilities Mechanic","Part-time Operations Supervisor"],"lat":34.828988,"lon":-85.043545}],"Peachtree City":[{"id":"GAFAY","name":"Fayette","city":"Peachtree City","state":"GA","zip":"30269","size":1,"jobs":["Package Handler","Driver Helper (Oct-Dec)","Package Delivery Driver","Feeder Driver","Automotive Mechanic","Facilities Mechanic","Part-time Operations Supervisor"],"lat":33.369855,"lon":-84.574375}],"Gainesville":[{"id":"GAHAL","name":"Gainesville","city":"Gainesville","state":"GA","zip":"30501","size":1,"jobs":["Package Handler","Driver Helper (Oct-Dec)","Package Delivery Driver","Feeder Driver","Automotive Mechanic","Facilities Mechanic","Part-time Operations Supervisor"],"lat":34.262887,"lon":-83.865654}],"Macon":[{"id":"GAMAC","name":"Macon","city":"Macon","state":"GA","zip":"31201","size":1,"jobs":["Package Handler","Driver Helper (Oct-Dec)","Package Delivery Driver","Feeder Driver","Automotive Mechanic","Facilities Mechanic","Part-time Operations Supervisor"],"lat":32.812721,"lon":-83.630813}],"Savannah":[{"id":"GASAV","name":"Savannah","city":"Savannah","state":"GA","zip":"31408","size":1,"jobs":["Package Handler","Driver Helper (Oct-Dec)","Package Delivery Driver","Feeder Driver","Automotive Mechanic","Facilities Mechanic","Part-time Operations Supervisor"],"lat":32.078109,"lon":-81.193567}],"Tifton":[{"id":"GATIF","name":"Tifton","city":"Tifton","state":"GA","zip":"31794","size":1,"jobs":["Package Handler","Driver Helper (Oct-Dec)","Package Delivery Driver","Feeder Driver","Automotive Mechanic","Facilities Mechanic","Part-time Operations Supervisor"],"lat":31.444641,"lon":-83.539183}],"Acworth":[{"id":"GAWOO","name":"Acworth Center","city":"Acworth","state":"GA","zip":"30101","size":1,"jobs":["Package Handler","Driver Helper (Oct-Dec)","Package Delivery Driver","Feeder Driver","Automotive Mechanic","Facilities Mechanic","Part-time Operations Supervisor"],"lat":34.058568,"lon":-84.660184}]}