{"Earth City":[{"id":"MOEAR","name":"Earth City","city":"Earth City","state":"MO","zip":"63045","size":0,"jobs":["Package Handler","Driver Helper (Oct-Dec)","Package Delivery Driver","Feeder Driver","Automotive Mechanic","Facilities Mechanic","Part-time Operations Supervisor"],"lat":38.769918,"lon":-90.46675}],"Berkley":[{"id":"MOBER","name":"St Louis Air Gateway","city":"Berkley","state":"MO","zip":"63134","size":1,"jobs":["Package Handler","Driver Helper (Oct-Dec)","Package Delivery Driver","Feeder Driver","Automotive Mechanic","Facilities Mechanic","Part-time Operations Supervisor"],"lat":38.749621,"lon":-90.34709}],"Columbia":[{"id":"MOCOL","name":"Columbia","city":"Columbia","state":"MO","zip":"65201","size":1,"jobs":["Package Handler","Driver Helper (Oct-Dec)","Package Delivery Driver","Feeder Driver","Automotive Mechanic","Facilities Mechanic","Part-time Operations Supervisor"],"lat":38.973762,"lon":-92.299606}],"Saint Louis":[{"id":"MOSLI","name":"Saint Louis","city":"Saint Louis","state":"MO","zip":"63147","size":1,"jobs":["Package Handler","UPS Freight Over the Road Driver","Part-time Operations Supervisor"],"lat":38.720801,"lon":-90.22378}],"Springfield":[{"id":"MOSPE","name":"Springfield (Extended)","city":"Springfield","state":"MO","zip":"65803","size":1,"jobs":["Package Handler","Driver Helper (Oct-Dec)","Package Delivery Driver","Feeder Driver","Automotive Mechanic","Facilities Mechanic","Part-time Operations Supervisor"],"lat":37.232405,"lon":-93.257291},{"id":"MOSPM","name":"Springfield (Metro  Bldg.)","city":"Springfield","state":"MO","zip":"65803","size":1,"jobs":["Package Handler","Driver Helper (Oct-Dec)","Package Delivery Driver","Feeder Driver","Automotive Mechanic","Facilities Mechanic","Part-time Operations Supervisor"],"lat":37.208957,"lon":-93.292299}],"St. Louis":[{"id":"MOSTL","name":"St. Louis","city":"St. Louis","state":"MO","zip":"63103","size":1,"jobs":["Package Handler","Driver Helper (Oct-Dec)","Package Delivery Driver","Feeder Driver","Automotive Mechanic","Facilities Mechanic","Part-time Operations Supervisor"],"lat":38.625993,"lon":-90.218224}]}