{"Bound Brook":[{"id":"NJBOU","name":"Bound Brook","city":"Bound Brook","state":"NJ","zip":"08805","size":0,"jobs":["Package Handler","Driver Helper (Oct-Dec)","Package Delivery Driver","Feeder Driver","Automotive Mechanic","Facilities Mechanic","Part-time Operations Supervisor"],"lat":40.569357,"lon":-74.562263}],"Edison":[{"id":"NJEDI","name":"Edison","city":"Edison","state":"NJ","zip":"08837","size":0,"jobs":["Package Handler","Driver Helper (Oct-Dec)","Package Delivery Driver","Feeder Driver","Automotive Mechanic","Facilities Mechanic","Part-time Operations Supervisor"],"lat":40.510853,"lon":-74.336317}],"Lawnside":[{"id":"NJLAW","name":"Lawnside","city":"Lawnside","state":"NJ","zip":"08045","size":0,"jobs":["Package Handler","Driver Helper (Oct-Dec)","Package Delivery Driver","Feeder Driver","Automotive Mechanic","Facilities Mechanic","Part-time Operations Supervisor"],"lat":39.869351,"lon":-75.021662}],"Secaucus":[{"id":"NJMEA","name":"Meadowlands","city":"Secaucus","state":"NJ","zip":"07094","size":0,"jobs":["Package Handler","Driver Helper (Oct-Dec)","Package Delivery Driver","Feeder Driver","Automotive Mechanic","Facilities Mechanic","Part-time Operations Supervisor"],"lat":40.779053,"lon":-74.0601}],"Parsippany":[{"id":"NJPAR","name":"Parsippany","city":"Parsippany","state":"NJ","zip":"07054","size":0,"jobs":["Package Handler","Driver Helper (Oct-Dec)","Package Delivery Driver","Feeder Driver","Automotive Mechanic","Facilities Mechanic","Part-time Operations Supervisor"],"lat":40.844601,"lon":-74.418956}],"Mahwah":[{"id":"NJRAR","name":"Ups Tech Hdquarters&datacenter","city":"Mahwah","state":"NJ","zip":"07430","size":0,"jobs":["Information Technology Staff"],"lat":41.066252,"lon":-74.170566}],"Saddle Brook":[{"id":"NJSAD","name":"Saddle Brook","city":"Saddle Brook","state":"NJ","zip":"07663","size":0,"jobs":["Package Handler","Driver Helper (Oct-Dec)","Package Delivery Driver","Feeder Driver","Automotive Mechanic","Facilities Mechanic","Part-time Operations Supervisor"],"lat":40.906412,"lon":-74.105528}],"Wayne":[{"id":"NJWAN","name":"Wayne Building","city":"Wayne","state":"NJ","zip":"07470","size":0,"jobs":["Information Technology Staff"],"lat":40.96747,"lon":-74.227885}],"Paramus":[{"id":"NJ640","name":"640 Building","city":"Paramus","state":"NJ","zip":"07652","size":1,"jobs":["Information Technology Staff"],"lat":40.963916,"lon":-74.071527},{"id":"NJ650","name":"650 Building","city":"Paramus","state":"NJ","zip":"07652","size":1,"jobs":["Information Technology Staff"],"lat":40.964803,"lon":-74.071409}],"Carteret":[{"id":"NJCRT","name":"Carteret","city":"Carteret","state":"NJ","zip":"07008","size":1,"jobs":["Package Handler","UPS Freight Over the Road Driver","Part-time Operations Supervisor"],"lat":40.584374,"lon":-74.253361}],"Newark":[{"id":"NJGOU","name":"Gould Ave","city":"Newark","state":"NJ","zip":"07107","size":1,"jobs":["Package Handler","Driver Helper (Oct-Dec)","Package Delivery Driver","Feeder Driver","Automotive Mechanic","Facilities Mechanic","Part-time Operations Supervisor"],"lat":40.75403,"lon":-74.198303},{"id":"NJNEW","name":"Newark Airport","city":"Newark","state":"NJ","zip":"07114","size":1,"jobs":["Package Handler","Feeder Driver","Part-time Operations Supervisor"],"lat":40.678769,"lon":-74.188105}],"Lakewood":[{"id":"NJLAK","name":"Lakewood","city":"Lakewood","state":"NJ","zip":"08701","size":1,"jobs":["Package Handler","Driver Helper (Oct-Dec)","Package Delivery Driver","Feeder Driver","Automotive Mechanic","Facilities Mechanic","Part-time Operations Supervisor"],"lat":40.070696,"lon":-74.179272}],"Moonachie":[{"id":"NJMOO","name":"Moonachie","city":"Moonachie","state":"NJ","zip":"07074","size":1,"jobs":["Package Handler","UPS Freight Over the Road Driver","Part-time Operations Supervisor"],"lat":40.834851,"lon":-74.054309}],"Mount Olive":[{"id":"NJMTO","name":"Mount Olive","city":"Mount Olive","state":"NJ","zip":"07828","size":1,"jobs":["Package Handler","Driver Helper (Oct-Dec)","Package Delivery Driver","Feeder Driver","Automotive Mechanic","Facilities Mechanic","Part-time Operations Supervisor"],"lat":40.905031,"lon":-74.731779}],"Pleasantville":[{"id":"NJPLE","name":"Pleasantville","city":"Pleasantville","state":"NJ","zip":"08232","size":1,"jobs":["Package Handler","Driver Helper (Oct-Dec)","Package Delivery Driver","Feeder Driver","Automotive Mechanic","Facilities Mechanic","Part-time Operations Supervisor"],"lat":39.412852,"lon":-74.522701}],"Ramsey":[{"id":"NJRAM","name":"Ramsey I S","city":"Ramsey","state":"NJ","zip":"07446","size":1,"jobs":["Information Technology Staff"],"lat":41.074499,"lon":-74.136493}],"Tinton Falls":[{"id":"NJTIN","name":"Tinton Falls","city":"Tinton Falls","state":"NJ","zip":"07724","size":1,"jobs":["Package Handler","Driver Helper (Oct-Dec)","Package Delivery Driver","Feeder Driver","Automotive Mechanic","Facilities Mechanic","Part-time Operations Supervisor"],"lat":40.286438,"lon":-74.078595}],"Hamilton":[{"id":"NJTRN","name":"Trenton","city":"Hamilton","state":"NJ","zip":"08619","size":1,"jobs":["Package Handler","Driver Helper (Oct-Dec)","Package Delivery Driver","Feeder Driver","Automotive Mechanic","Facilities Mechanic","Part-time Operations Supervisor"],"lat":40.240057,"lon":-74.717424}],"Vineland":[{"id":"NJVIN","name":"Vineland","city":"Vineland","state":"NJ","zip":"08360","size":1,"jobs":["Package Handler","Driver Helper (Oct-Dec)","Package Delivery Driver","Feeder Driver","Automotive Mechanic","Facilities Mechanic","Part-time Operations Supervisor"],"lat":39.541684,"lon":-75.057321}]}