{"Albuquerque":[{"id":"NMALB","name":"Albuquerque","city":"Albuquerque","state":"NM","zip":"87107","size":0,"jobs":["Package Handler","Driver Helper (Oct-Dec)","Package Delivery Driver","Feeder Driver","Automotive Mechanic","Facilities Mechanic","Part-time Operations Supervisor"],"lat":35.124532,"lon":-106.618936},{"id":"NMAIR","name":"Albuquerque Air Operation","city":"Albuquerque","state":"NM","zip":"87104","size":1,"jobs":["Package Handler","Feeder Driver","Part-time Operations Supervisor"],"lat":35.031072,"lon":-106.626447},{"id":"NMASP","name":"Aspen Facility","city":"Albuquerque","state":"NM","zip":"87104","size":1,"jobs":["Package Handler","Driver Helper (Oct-Dec)","Package Delivery Driver","Feeder Driver","Automotive Mechanic","Facilities Mechanic","Part-time Operations Supervisor"],"lat":35.102603,"lon":-106.660553}],"Santa Fe":[{"id":"NMSFE","name":"Santa Fe Center","city":"Santa Fe","state":"NM","zip":"87501","size":1,"jobs":["Package Handler","Driver Helper (Oct-Dec)","Package Delivery Driver","Feeder Driver","Automotive Mechanic","Facilities Mechanic","Part-time Operations Supervisor"],"lat":35.632678,"lon":-106.024304}]}