{"Las Vegas":[{"id":"NVLVE","name":"Las Vegas South","city":"Las Vegas","state":"NV","zip":"89119","size":0,"jobs":["Package Handler","Driver Helper (Oct-Dec)","Package Delivery Driver","Feeder Driver","Automotive Mechanic","Facilities Mechanic","Part-time Operations Supervisor"],"lat":36.059044,"lon":-115.156858},{"id":"NVLAS","name":"Las Vegas North","city":"Las Vegas","state":"NV","zip":"89106","size":1,"jobs":["Package Handler","Driver Helper (Oct-Dec)","Package Delivery Driver","Feeder Driver","Automotive Mechanic","Facilities Mechanic","Part-time Operations Supervisor"],"lat":36.162746,"lon":-115.160875},{"id":"NVLSV","name":"Ups Teleservice Las Vegas","city":"Las Vegas","state":"NV","zip":"89119","size":1,"jobs":["General Management Staff","Administrative Support Staff"],"lat":36.060238,"lon":-115.148865}],"Sparks":[{"id":"NVRNO","name":"Reno Hub","city":"Sparks","state":"NV","zip":"89434","size":0,"jobs":["Package Handler","Driver Helper (Oct-Dec)","Package Delivery Driver","Feeder Driver","Automotive Mechanic","Facilities Mechanic","Part-time Operations Supervisor"],"lat":39.535054,"lon":-119.704345}]}