{"New York City":[{"id":"NY43R","name":"43rd Street","city":"New York City","state":"NY","zip":"10036","size":0,"jobs":["Package Handler","Driver Helper (Oct-Dec)","Package Delivery Driver","Feeder Driver","Automotive Mechanic","Facilities Mechanic","Part-time Operations Supervisor"],"lat":40.762173,"lon":-73.999345},{"id":"NYMNS","name":"Manhattan South","city":"New York City","state":"NY","zip":"10014","size":0,"jobs":["Package Handler","Driver Helper (Oct-Dec)","Package Delivery Driver","Feeder Driver","Automotive Mechanic","Facilities Mechanic","Part-time Operations Supervisor"],"lat":40.726024,"lon":-74.009467}],"Latham":[{"id":"NYALB","name":"Albany","city":"Latham","state":"NY","zip":"12110","size":0,"jobs":["Package Handler","Driver Helper (Oct-Dec)","Package Delivery Driver","Feeder Driver","Automotive Mechanic","Facilities Mechanic","Part-time Operations Supervisor"],"lat":42.747648,"lon":-73.777512}],"Buffalo":[{"id":"NYBUF","name":"Buffalo Hub","city":"Buffalo","state":"NY","zip":"14206","size":0,"jobs":["Package Handler","Driver Helper (Oct-Dec)","Package Delivery Driver","Feeder Driver","Automotive Mechanic","Facilities Mechanic","Part-time Operations Supervisor"],"lat":42.882591,"lon":-78.807141}],"Brooklyn":[{"id":"NYFOS","name":"Foster Ave","city":"Brooklyn","state":"NY","zip":"11236","size":0,"jobs":["Package Handler","Driver Helper (Oct-Dec)","Package Delivery Driver","Feeder Driver","Automotive Mechanic","Facilities Mechanic","Part-time Operations Supervisor"],"lat":40.650284,"lon":-73.902761}],"Maspeth":[{"id":"NYMAS","name":"Maspeth","city":"Maspeth","state":"NY","zip":"11378","size":0,"jobs":["Package Handler","Driver Helper (Oct-Dec)","Package Delivery Driver","Feeder Driver","Automotive Mechanic","Facilities Mechanic","Part-time Operations Supervisor"],"lat":40.727629,"lon":-73.922226}],"Farmingdale":[{"id":"NYMEL","name":"Melville","city":"Farmingdale","state":"NY","zip":"11735","size":0,"jobs":["Package Handler","Driver Helper (Oct-Dec)","Package Delivery Driver","Feeder Driver","Automotive Mechanic","Facilities Mechanic","Part-time Operations Supervisor"],"lat":40.755508,"lon":-73.418865}],"Uniondale":[{"id":"NYNAS","name":"Nassau","city":"Uniondale","state":"NY","zip":"11553","size":0,"jobs":["Package Handler","Driver Helper (Oct-Dec)","Package Delivery Driver","Feeder Driver","Automotive Mechanic","Facilities Mechanic","Part-time Operations Supervisor"],"lat":40.725469,"lon":-73.606709}],"Farmingville":[{"id":"NYSUF","name":"Suffolk","city":"Farmingville","state":"NY","zip":"11738","size":0,"jobs":["Package Handler","Driver Helper (Oct-Dec)","Package Delivery Driver","Feeder Driver","Automotive Mechanic","Facilities Mechanic","Part-time Operations Supervisor"],"lat":40.828169,"lon":-73.01752}],"E. Syracuse":[{"id":"NYSYR","name":"Syracuse","city":"E. Syracuse","state":"NY","zip":"13057","size":0,"jobs":["Package Handler","Driver Helper (Oct-Dec)","Package Delivery Driver","Feeder Driver","Automotive Mechanic","Facilities Mechanic","Part-time Operations Supervisor"],"lat":43.106942,"lon":-76.074662}],"Vestal":[{"id":"NYBIN","name":"Binghamton","city":"Vestal","state":"NY","zip":"13850","size":1,"jobs":["Package Handler","Driver Helper (Oct-Dec)","Package Delivery Driver","Feeder Driver","Automotive Mechanic","Facilities Mechanic","Part-time Operations Supervisor"],"lat":42.108091,"lon":-75.985828}],"Syracuse":[{"id":"NYBRO","name":"Brooklawn General Offices","city":"Syracuse","state":"NY","zip":"13211","size":1,"jobs":["General Management Staff","Administrative Support Staff"],"lat":43.09423,"lon":-76.097831}],"Bronx":[{"id":"NYBRU","name":"Brush Avenue","city":"Bronx","state":"NY","zip":"10465","size":1,"jobs":["Package Handler","Driver Helper (Oct-Dec)","Package Delivery Driver","Feeder Driver","Automotive Mechanic","Facilities Mechanic","Part-time Operations Supervisor"],"lat":40.818105,"lon":-73.838882},{"id":"NYMAN","name":"Manhattan North","city":"Bronx","state":"NY","zip":"10451","size":1,"jobs":["Package Handler","Driver Helper (Oct-Dec)","Package Delivery Driver","Feeder Driver","Automotive Mechanic","Facilities Mechanic","Part-time Operations Supervisor"],"lat":40.810653,"lon":-73.93007},{"id":"NYMTV","name":"Mt. Vernon","city":"Bronx","state":"NY","zip":"10466","size":1,"jobs":["Package Handler","Driver Helper (Oct-Dec)","Package Delivery Driver","Feeder Driver","Automotive Mechanic","Facilities Mechanic","Part-time Operations Supervisor"],"lat":40.888435,"lon":-73.822444}],"Champlain":[{"id":"NYCHP","name":"Transborder Building","city":"Champlain","state":"NY","zip":"12919","size":1,"jobs":["General Management Staff","Administrative Support Staff"],"lat":44.986427,"lon":-73.446525}],"Chester":[{"id":"NYCHT","name":"Chester","city":"Chester","state":"NY","zip":"10918","size":1,"jobs":["Package Handler","Driver Helper (Oct-Dec)","Package Delivery Driver","Feeder Driver","Automotive Mechanic","Facilities Mechanic","Part-time Operations Supervisor"],"lat":41.347341,"lon":-74.276257}],"Elmsford":[{"id":"NYELF","name":"Elmsford","city":"Elmsford","state":"NY","zip":"10523","size":1,"jobs":["Package Handler","Driver Helper (Oct-Dec)","Package Delivery Driver","Feeder Driver","Automotive Mechanic","Facilities Mechanic","Part-time Operations Supervisor"],"lat":41.064329,"lon":-73.818495}],"Queensbury":[{"id":"NYGLE","name":"Glens Falls","city":"Queensbury","state":"NY","zip":"12804","size":1,"jobs":["Package Handler","Driver Helper (Oct-Dec)","Package Delivery Driver","Feeder Driver","Automotive Mechanic","Facilities Mechanic","Part-time Operations Supervisor"],"lat":43.294238,"lon":-73.678584}],"Henrietta":[{"id":"NYHEN","name":"Henrietta","city":"Henrietta","state":"NY","zip":"14467","size":1,"jobs":["Package Handler","Driver Helper (Oct-Dec)","Package Delivery Driver","Feeder Driver","Automotive Mechanic","Facilities Mechanic","Part-time Operations Supervisor"],"lat":43.057579,"lon":-77.648177}],"Kingston":[{"id":"NYKIN","name":"Kingston","city":"Kingston","state":"NY","zip":"12401","size":1,"jobs":["Package Handler","Driver Helper (Oct-Dec)","Package Delivery Driver","Feeder Driver","Automotive Mechanic","Facilities Mechanic","Part-time Operations Supervisor"],"lat":41.948132,"lon":-73.988055}],"Long Island City":[{"id":"NYLIC","name":"Queens North","city":"Long Island City","state":"NY","zip":"11101","size":1,"jobs":["Package Handler","Driver Helper (Oct-Dec)","Package Delivery Driver","Feeder Driver","Automotive Mechanic","Facilities Mechanic","Part-time Operations Supervisor"],"lat":40.740937,"lon":-73.942815}],"Newburgh":[{"id":"NYMON","name":"Newburgh","city":"Newburgh","state":"NY","zip":"12549","size":1,"jobs":["Package Handler","UPS Freight Over the Road Driver","Part-time Operations Supervisor"],"lat":41.518085,"lon":-74.241409}],"Plattsburgh":[{"id":"NYPLB","name":"Plattsburgh","city":"Plattsburgh","state":"NY","zip":"12901","size":1,"jobs":["Package Handler","Driver Helper (Oct-Dec)","Package Delivery Driver","Feeder Driver","Automotive Mechanic","Facilities Mechanic","Part-time Operations Supervisor"],"lat":44.709462,"lon":-73.539681}],"Poughkeepsie":[{"id":"NYPOU","name":"Poughkeepsie","city":"Poughkeepsie","state":"NY","zip":"12603","size":1,"jobs":["Package Handler","Driver Helper (Oct-Dec)","Package Delivery Driver","Feeder Driver","Automotive Mechanic","Facilities Mechanic","Part-time Operations Supervisor"],"lat":41.676707,"lon":-73.853539}],"Rochester":[{"id":"NYROC","name":"Rochester","city":"Rochester","state":"NY","zip":"14605","size":1,"jobs":["Package Handler","Driver Helper (Oct-Dec)","Package Delivery Driver","Feeder Driver","Automotive Mechanic","Facilities Mechanic","Part-time Operations Supervisor"],"lat":43.166125,"lon":-77.604863}],"Gardens":[{"id":"NYSGA","name":"New York","city":"Gardens","state":"NY","zip":"11413","size":1,"jobs":["Package Handler","UPS Freight Over the Road Driver","Part-time Operations Supervisor"],"lat":40.667943,"lon":-73.753669}],"Springfield Gardens":[{"id":"NYSPR","name":"Laurelton","city":"Springfield Gardens","state":"NY","zip":"11413","size":1,"jobs":["Package Handler","Driver Helper (Oct-Dec)","Package Delivery Driver","Feeder Driver","Automotive Mechanic","Facilities Mechanic","Part-time Operations Supervisor"],"lat":40.677008,"lon":-73.755301}],"Nanuet":[{"id":"NYSPV","name":"Spring Valley","city":"Nanuet","state":"NY","zip":"10954","size":1,"jobs":["Package Handler","Driver Helper (Oct-Dec)","Package Delivery Driver","Feeder Driver","Automotive Mechanic","Facilities Mechanic","Part-time Operations Supervisor"],"lat":41.098348,"lon":-74.035024}],"Staten Island":[{"id":"NYSTI","name":"Staten Island","city":"Staten Island","state":"NY","zip":"10314","size":1,"jobs":["Package Handler","Driver Helper (Oct-Dec)","Package Delivery Driver","Feeder Driver","Automotive Mechanic","Facilities Mechanic","Part-time Operations Supervisor"],"lat":40.601214,"lon":-74.179847}],"New Windsor":[{"id":"NYWIN","name":"New Windsor","city":"New Windsor","state":"NY","zip":"12553","size":1,"jobs":["Package Handler","Driver Helper (Oct-Dec)","Package Delivery Driver","Feeder Driver","Automotive Mechanic","Facilities Mechanic","Part-time Operations Supervisor"],"lat":41.480694,"lon":-74.070729}],"Yorktown Heights":[{"id":"NYYOR","name":"Yorktown","city":"Yorktown Heights","state":"NY","zip":"10598","size":1,"jobs":["Package Handler","Driver Helper (Oct-Dec)","Package Delivery Driver","Feeder Driver","Automotive Mechanic","Facilities Mechanic","Part-time Operations Supervisor"],"lat":41.264517,"lon":-73.779191}]}